name,clean_name,approvaldt,origin,diameter,center_lon,center_lat,type,code,approval,min_lon,max_lon,min_lat,max_lat,ethnicity,continent,quad_name,quad_code,link
Marco Polo P,Marco Polo P,1/1/2006,Italian explorer (1254-1324).,28.0621,359.681517,16.96734857,Satellite Feature,SF,Adopted by IAU,359.1977482,360.1642889,16.50463676,17.43006325,Italy,Europe,Montes Apenninus,LAC-41,http://planetarynames.wr.usgs.gov/Feature/11150
Guericke S,Guericke S,1/1/2006,"Otto von; German physicist, engineer, naturalist (1602-1686).",10.1894,346.6010185,-10.35689146,Satellite Feature,SF,Adopted by IAU,346.4716969,346.7298679,-10.52975082,-10.19424629,Germany,Europe,Montes Riphaeus,LAC-76,http://planetarynames.wr.usgs.gov/Feature/9606
Apollonius L,Apollonius L,1/1/2006,Apollonius of Perga; Greek mathematician (c. 262-190 B.C.).,10.1233,54.56681741,6.471043922,Satellite Feature,SF,Adopted by IAU,54.39906502,54.73459053,6.333215714,6.630338669,Greek,Europe,Mare Undarum,LAC-62,http://planetarynames.wr.usgs.gov/Feature/7311
Adams B,Adams B,1/1/2006,John Couch; British astronomer (1819-1892); Charles Hitchcock; American astronomer (1868-1951); Walter Sydney; American astronomer (1876-1956).,31.328,65.70067364,-31.5429447,Satellite Feature,SF,Adopted by IAU,65.09632301,66.30603981,-31.97911644,-31.05340195,American,North America,Petavius,LAC-98,http://planetarynames.wr.usgs.gov/Feature/7076
Al-Khwarizmi G,Al Khwarizmi G,1/1/2006,Abū Ja'far Muhammad Ibn Mūsā; Iraqi mathematician (unkn-after 847).,102.832,107.3456639,6.755925531,Satellite Feature,SF,Adopted by IAU,105.8858662,108.8054638,5.193517685,8.30585289,Iraq,Asia,Babcock,LAC-64,http://planetarynames.wr.usgs.gov/Feature/7131
Alden E,Alden E,1/1/2006,Harold Lee; American astronomer (1890-1964).,26.3692,112.8051745,-23.41777524,Satellite Feature,SF,Adopted by IAU,112.3971577,113.1990376,-23.83175278,-22.96324921,American,North America,Fermi,LAC-101,http://planetarynames.wr.usgs.gov/Feature/7156
Alexander K,Alexander K,1/1/2006,"Alexander the Great, of Macedon; Greek geographer (356-323 B.C.).",3.9548,19.34965292,40.52136283,Satellite Feature,SF,Adopted by IAU,19.26791573,19.43445015,40.45615578,40.58657265,Greek,Europe,Eudoxus,LAC-26,http://planetarynames.wr.usgs.gov/Feature/7163
Aliacensis K,Aliacensis K,1/1/2006,"D'Ailly, Pierre; French geographer (1350-1420).",5.64688,6.258897221,-31.42892769,Satellite Feature,SF,Adopted by IAU,6.146799088,6.365045547,-31.51965904,-31.33343697,France,Europe,Purbach,LAC-95,http://planetarynames.wr.usgs.gov/Feature/7183
Hayford P,Hayford P,1/1/2006,"John Fillmore; American civil engineer, geodesist (1868-1925).",20.9046,182.2629683,11.00942723,Satellite Feature,SF,Adopted by IAU,181.9207973,182.6155987,10.71300697,11.30073357,American,North America,Sharonov,LAC-68,http://planetarynames.wr.usgs.gov/Feature/9753
Fourier P,Fourier P,1/1/2006,Jean-Baptiste Joseph; French mathematician (1768-1830).,9.61917,304.9269247,-31.11562206,Satellite Feature,SF,Adopted by IAU,304.7908154,305.0442295,-31.28416824,-30.97364807,France,Europe,Byrgius,LAC-92,http://planetarynames.wr.usgs.gov/Feature/9173
Bridgman C,Bridgman C,1/1/2006,Percy Williams; American physicist; Nobel laureate (1882-1961).,40.4358,140.4018252,46.56809602,Satellite Feature,SF,Adopted by IAU,139.4680157,141.4025211,46.04265022,47.07295799,American,North America,Campbell,LAC-31,http://planetarynames.wr.usgs.gov/Feature/7947
Maskelyne Y,Maskelyne Y,1/1/2006,Nevil; British astronomer (1732-1811).,4.27393,28.16081938,1.729458326,Satellite Feature,SF,Adopted by IAU,28.09031487,28.23132515,1.658987045,1.79993248,Great Britain,Europe,Julius Caesar,LAC-60,http://planetarynames.wr.usgs.gov/Feature/11217
Avicenna E,Avicenna E,1/1/2006,Abu Ali Al-Hussein Ibn Abdallah; Persian doctor (980-1037).,25.6444,268.7494864,40.19474088,Satellite Feature,SF,Adopted by IAU,268.1967335,269.2789173,39.7902317,40.57340431,Persian,Asia,Lorentz,LAC-36,http://planetarynames.wr.usgs.gov/Feature/7435
Barbier K,Barbier K,1/1/2006,Daniel; French astronomer (1907-1965).,13.2483,159.2015021,-26.28827574,Satellite Feature,SF,Adopted by IAU,158.95788,159.4451199,-26.41816902,-26.15838051,France,Europe,O'Day,LAC-103,http://planetarynames.wr.usgs.gov/Feature/7540
Barocius C,Barocius C,1/1/2006,Francesco; Italian mathematician (1537-1604).,35.8403,17.47759957,-43.1070071,Satellite Feature,SF,Adopted by IAU,16.66844368,18.28647423,-43.62229156,-42.58722496,Italy,Europe,Maurolycus,LAC-113,http://planetarynames.wr.usgs.gov/Feature/7546
Bayer S,Bayer S,1/1/2006,Johann; German astronomer (1572-1625).,15.4356,323.5528562,-52.32560844,Satellite Feature,SF,Adopted by IAU,323.1520672,323.958704,-52.57988358,-52.0712738,Germany,Europe,Schiller,LAC-125,http://planetarynames.wr.usgs.gov/Feature/7591
Birkhoff M,Birkhoff M,1/1/2006,George David; American mathematician (1884-1944).,25.3292,214.9376673,54.50164329,Satellite Feature,SF,Adopted by IAU,214.5242367,215.2547321,54.03412437,54.84789848,American,North America,Birkhoff,LAC-19,http://planetarynames.wr.usgs.gov/Feature/7737
Bolyai W,Bolyai W,1/1/2006,Janos; Hungarian mathematician (1802-1860).,53.0283,124.4160667,-32.04761918,Satellite Feature,SF,Adopted by IAU,123.3967876,125.4349117,-32.84338951,-31.29808807,Hungary,Europe,Milne,LAC-117,http://planetarynames.wr.usgs.gov/Feature/7819
Boscovich P,Boscovich P,1/1/2006,Rudjer J.; Italian physicist (1711-1787).,64.8228,10.30889031,11.4687888,Satellite Feature,SF,Adopted by IAU,9.518346786,10.93157768,10.60802269,12.39765358,Italy,Europe,Julius Caesar,LAC-60,http://planetarynames.wr.usgs.gov/Feature/7862
Briggs A,Briggs A,1/1/2006,Henry; British mathematician (1561-1630).,25.1331,286.221001,27.12483126,Satellite Feature,SF,Adopted by IAU,285.8200855,286.6124439,26.71531105,27.52432823,Great Britain,Europe,Russell,LAC-37,http://planetarynames.wr.usgs.gov/Feature/7950
Brown E,Brown E,1/1/2006,"Ernest William; British astronomer, mathematician (1866-1938).",23.1873,342.3711297,-46.85889338,Satellite Feature,SF,Adopted by IAU,341.8399372,342.9142628,-47.23365593,-46.48412514,Great Britain,Europe,Wilhelm,LAC-111,http://planetarynames.wr.usgs.gov/Feature/7965
Buch E,Buch E,1/1/2006,Christian Leopold von; German geologist (1774-1853).,8.31281,16.50253695,-38.97651871,Satellite Feature,SF,Adopted by IAU,16.38118553,16.62389183,-39.1114502,-38.84257126,Germany,Europe,Maurolycus,LAC-113,http://planetarynames.wr.usgs.gov/Feature/7976
Bullialdus G,Bullialdus G,1/1/2006,"Boulliau, Ismael; French astronomer (1605-1694).",3.39559,336.2994187,-23.27090458,Satellite Feature,SF,Adopted by IAU,336.2384739,336.3603687,-23.32689285,-23.21491432,France,Europe,Pitatus,LAC-94,http://planetarynames.wr.usgs.gov/Feature/7989
Bullialdus H,Bullialdus H,1/1/2006,"Boulliau, Ismael; French astronomer (1605-1694).",4.3762,340.6397483,-22.75318241,Satellite Feature,SF,Adopted by IAU,340.5615025,340.7179966,-22.82534027,-22.68102264,France,Europe,Pitatus,LAC-94,http://planetarynames.wr.usgs.gov/Feature/7990
Bunsen B,Bunsen B,1/1/2006,Robert Wilhelm Eberhard; German chemist (1811-1899).,21.4867,271.970359,44.109238,Satellite Feature,SF,Adopted by IAU,271.5206432,272.4200802,43.76100731,44.46532631,Germany,Europe,Lorentz,LAC-36,http://planetarynames.wr.usgs.gov/Feature/7996
Buys-Ballot H,Buys Ballot H,1/1/2006,Christoph Hendrik Diederik; Dutch meteorologist (1817-1890).,24.0331,179.6066147,19.52680616,Satellite Feature,SF,Adopted by IAU,179.2211437,179.9920902,19.17355537,19.89215279,The Netherlands (Dutch),Europe,Fitzgerald,LAC-50,http://planetarynames.wr.usgs.gov/Feature/8024
Byrgius S,Byrgius S,1/1/2006,"Burgi, Joost; Swiss horologist (1552-1632).",45.9357,298.2259993,-26.06223907,Satellite Feature,SF,Adopted by IAU,297.3828793,299.0691242,-26.55454445,-25.58170891,Switzerland,Europe,Byrgius,LAC-92,http://planetarynames.wr.usgs.gov/Feature/8039
Calippus A,Calippus A,1/1/2006,Calippus of Cyzicus; Greek astronomer (c. 370 B.C.).,15.7166,7.870557194,37.05999064,Satellite Feature,SF,Adopted by IAU,7.552984238,8.189218521,36.80305672,37.31384087,Greek,Europe,Cassini,LAC-25,http://planetarynames.wr.usgs.gov/Feature/8060
Calippus C,Calippus C,1/1/2006,Calippus of Cyzicus; Greek astronomer (c. 370 B.C.).,37.6947,9.1572982,39.43458467,Satellite Feature,SF,Adopted by IAU,8.683515549,9.766218185,38.8265667,40.04260445,Greek,Europe,Cassini,LAC-25,http://planetarynames.wr.usgs.gov/Feature/8062
Cannon E,Cannon E,1/1/2006,Annie Jump; American astronomer (1863-1941).,25.8671,78.99432383,19.26736163,Satellite Feature,SF,Adopted by IAU,78.66077995,79.37223625,18.84399986,19.69346809,American,North America,Hubble,LAC-45,http://planetarynames.wr.usgs.gov/Feature/8079
Capuanus P,Capuanus P,1/1/2006,Francesco Capuano Di Manfredonia; Italian astronomer (c. 1400-unkn).,68.5186,331.4083067,-35.44321947,Satellite Feature,SF,Adopted by IAU,330.4970798,332.4547939,-36.39631462,-34.45436478,Italy,Europe,Wilhelm,LAC-111,http://planetarynames.wr.usgs.gov/Feature/8104
Cassini A,Cassini A,1/1/2006,Giovanni Domenico; Italian-French astronomer (1625-1712); Jacques; French astronomer (1677-1756).,16.7569,4.775646384,40.51380517,Satellite Feature,SF,Adopted by IAU,4.411344528,5.139951706,40.25853157,40.75555229,Italy,Europe,Cassini,LAC-25,http://planetarynames.wr.usgs.gov/Feature/8140
Cassini W,Cassini W,1/1/2006,Giovanni Domenico; Italian-French astronomer (1625-1712); Jacques; French astronomer (1677-1756).,5.46221,4.254066547,42.34816631,Satellite Feature,SF,Adopted by IAU,4.137571335,4.370542526,42.25810051,42.43823051,Italy,Europe,Cassini,LAC-25,http://planetarynames.wr.usgs.gov/Feature/8150
Clairaut F,Clairaut F,1/1/2006,Alexis Claude; French mathematician (1713-1765).,31.1815,14.35356467,-45.77752761,Satellite Feature,SF,Adopted by IAU,13.83732033,14.89142418,-46.29148293,-45.26355553,France,Europe,Maurolycus,LAC-113,http://planetarynames.wr.usgs.gov/Feature/8298
Condorcet E,Condorcet E,1/1/2006,Jean de; French mathematician (1743-1794).,8.03069,68.16375908,11.34986698,Satellite Feature,SF,Adopted by IAU,68.02869987,68.29881859,11.2174511,11.48228645,France,Europe,Mare Undarum,LAC-62,http://planetarynames.wr.usgs.gov/Feature/8385
Daguerre K,Daguerre K,1/1/2006,"Louis-Jacques-Mandé; French artist, chemist, photographer (1789-1851).",5.43518,35.78286688,-12.24530059,Satellite Feature,SF,Adopted by IAU,35.71187019,35.85385704,-12.3338604,-12.15674019,France,Europe,Colombo,LAC-79,http://planetarynames.wr.usgs.gov/Feature/8561
de Gasparis A,de Gasparis A,1/1/2006,Annibale; Italian astronomer (1819-1892).,38.4081,308.626918,-26.73749194,Satellite Feature,SF,Adopted by IAU,307.9178333,309.3360081,-27.2229023,-26.27825546,Italy,Europe,Byrgius,LAC-92,http://planetarynames.wr.usgs.gov/Feature/8617
De Vico A,De Vico A,1/1/2006,Francesco; Italian astronomer (1805-1848).,34.082,296.3835833,-18.7486984,Satellite Feature,SF,Adopted by IAU,295.8267918,296.9780827,-19.2949276,-18.17182159,Italy,Europe,Byrgius,LAC-92,http://planetarynames.wr.usgs.gov/Feature/8647
Delambre F,Delambre F,1/1/2006,Jean-Baptiste Joseph; French astronomer (1749-1822).,4.24528,19.24768267,-1.06276479,Satellite Feature,SF,Adopted by IAU,19.17767143,19.31769753,-1.132764816,-0.992763519,France,Europe,Theophilus,LAC-78,http://planetarynames.wr.usgs.gov/Feature/8680
Douglass X,Douglass X,1/1/2006,Andrew Ellicott; American astronomer (1867-1962).,24.1861,235.9132397,38.05334521,Satellite Feature,SF,Adopted by IAU,235.4896984,236.443861,37.65464211,38.45199013,American,North America,Landau,LAC-35,http://planetarynames.wr.usgs.gov/Feature/8807
Drebbel P,Drebbel P,1/1/2006,Cornelius; Dutch inventor (1572-1634).,4.87677,308.0654206,-39.72377032,Satellite Feature,SF,Adopted by IAU,307.9608631,308.169981,-39.80418205,-39.64335632,The Netherlands (Dutch),Europe,Schickard,LAC-110,http://planetarynames.wr.usgs.gov/Feature/8827
Dubyago X,Dubyago X,1/1/2006,Dmitrij Ivanovich; Russian astronomer (1850-1918); Alexander Dmitrievich; Soviet astronomer (1903-1959).,8.40876,73.03080398,6.497452703,Satellite Feature,SF,Adopted by IAU,72.89125633,73.17035103,6.358800888,6.636106491,Soviet,Europe,Neper,LAC-63,http://planetarynames.wr.usgs.gov/Feature/8856
Egede E,Egede E,1/1/2006,Hans; Danish natural historian (1686-1758).,3.61503,10.43223084,49.73750461,Satellite Feature,SF,Adopted by IAU,10.33999825,10.52446556,49.6778965,49.79711342,Denmark,Europe,Aristoteles,LAC-13,http://planetarynames.wr.usgs.gov/Feature/8882
Evershed S,Evershed S,1/1/2006,John; British astronomer (1864-1956).,47.2388,197.1616842,34.50390454,Satellite Feature,SF,Adopted by IAU,196.4585552,197.9603634,33.74120522,35.26643944,Great Britain,Europe,Schneller,LAC-33,http://planetarynames.wr.usgs.gov/Feature/9030
Eratosthenes Z,Eratosthenes Z,1/1/2006,"Greek astronomer, geographer (c. 276-196 B.C.).",0.571071,345.9003847,13.74920425,Satellite Feature,SF,Adopted by IAU,345.8906918,345.9100819,13.73978996,13.75862312,Greek,Europe,Copernicus,LAC-58,http://planetarynames.wr.usgs.gov/Feature/8988
Flammarion Y,Flammarion Y,1/1/2006,Camille; French astronomer (1842-1925).,2.3012,356.8084856,-3.732964179,Satellite Feature,SF,Adopted by IAU,356.7704601,356.8465137,-3.770908356,-3.695018768,France,Europe,Ptolemaeus,LAC-77,http://planetarynames.wr.usgs.gov/Feature/9105
Flamsteed X,Flamsteed X,1/1/2006,John; British astronomer (1646-1719).,2.82469,312.600265,-2.297581836,Satellite Feature,SF,Adopted by IAU,312.5536518,312.6468792,-2.344158173,-2.251005173,Great Britain,Europe,Letronne,LAC-75,http://planetarynames.wr.usgs.gov/Feature/9123
Foster H,Foster H,1/1/2006,John Stuart; Canadian physicist (1890-1964).,27.3738,220.4245824,23.01787848,Satellite Feature,SF,Adopted by IAU,219.9408817,220.8813648,22.66585732,23.34400368,Canada,North America,Joule,LAC-52,http://planetarynames.wr.usgs.gov/Feature/9158
Fourier K,Fourier K,1/1/2006,Jean-Baptiste Joseph; French mathematician (1768-1830).,13.1413,305.6481786,-30.03885266,Satellite Feature,SF,Adopted by IAU,305.4491978,305.8471622,-30.25028229,-29.82376289,France,Europe,Byrgius,LAC-92,http://planetarynames.wr.usgs.gov/Feature/9169
Hevelius E,Hevelius E,1/1/2006,"Howelcke, Johann; Polish astronomer (1611-1687).",8.80809,294.2175982,2.958223044,Satellite Feature,SF,Adopted by IAU,294.0721684,294.3630314,2.812986374,3.103460312,Poland,Europe,Hevelius,LAC-56,http://planetarynames.wr.usgs.gov/Feature/9962
Fracastorius W,Fracastorius W,1/1/2006,"Fracastoro, Girolamo; Italian doctor, astronomer (1483-1553).",6.64621,35.68662758,-22.6951722,Satellite Feature,SF,Adopted by IAU,35.56783104,35.80542564,-22.80475998,-22.58558273,Italy,Europe,Fracastorius,LAC-97,http://planetarynames.wr.usgs.gov/Feature/9216
Franklin H,Franklin H,1/1/2006,Benjamin; American inventor (1706-1790).,5.15161,43.74471594,37.12018798,Satellite Feature,SF,Adopted by IAU,43.63819313,43.85124016,37.0352459,37.20513344,American,North America,Geminus,LAC-27,http://planetarynames.wr.usgs.gov/Feature/9223
Fraunhofer A,Fraunhofer A,1/1/2006,"Joseph von; German astronomer, optician (1787-1826).",29.172,61.61022578,-39.58060825,Satellite Feature,SF,Adopted by IAU,61.10616493,62.17454338,-40.04234695,-39.13101387,Germany,Europe,Furnerius,LAC-115,http://planetarynames.wr.usgs.gov/Feature/9226
Gauss A,Gauss A,1/1/2006,Karl Friedrich; German mathematician (1777-1855).,20.704,82.76711514,36.53828773,Satellite Feature,SF,Adopted by IAU,82.41229057,83.1451664,36.19082451,36.86182976,Germany,Europe,Fabry,LAC-29,http://planetarynames.wr.usgs.gov/Feature/9391
Furnerius V,Furnerius V,1/1/2006,"Fournier, Georges: French mathematician (1595-1652).",59.1807,65.4990169,-35.71511328,Satellite Feature,SF,Adopted by IAU,64.52770805,66.43282509,-36.6856308,-34.72050667,France,Europe,Furnerius,LAC-115,http://planetarynames.wr.usgs.gov/Feature/9271
Furnerius F,Furnerius F,1/1/2006,"Fournier, Georges: French mathematician (1595-1652).",52.0555,64.12192434,-36.10038747,Satellite Feature,SF,Adopted by IAU,63.43162346,64.66543388,-36.95588303,-35.24489021,France,Europe,Furnerius,LAC-115,http://planetarynames.wr.usgs.gov/Feature/9258
Galilaei G,Galilaei G,1/1/2006,"Galileo; Italian astronomer, physicist (1564-1642).",0.808777,292.7441469,12.6525279,Satellite Feature,SF,Adopted by IAU,292.7304821,292.7578144,12.63919258,12.66586494,Italy,Europe,Hevelius,LAC-56,http://planetarynames.wr.usgs.gov/Feature/9292
Galilaei S,Galilaei S,1/1/2006,"Galileo; Italian astronomer, physicist (1564-1642).",2.72159,295.2289102,15.461852,Satellite Feature,SF,Adopted by IAU,295.1823521,295.2754726,15.41697502,15.50672722,Italy,Europe,Hevelius,LAC-56,http://planetarynames.wr.usgs.gov/Feature/9298
Ganskiy (Hansky) F,Ganskiy  Hansky  F,1/1/2006,Aleksey Pavlovich; Russian astronomer (1870-1908).,8.87558,98.98824705,-9.65803766,Satellite Feature,SF,Adopted by IAU,98.83979607,99.13670158,-9.804386139,-9.511688232,Russia,Europe,Pasteur,LAC-82,http://planetarynames.wr.usgs.gov/Feature/9337
Gassendi L,Gassendi L,1/1/2006,"Pierre; French astronomer, mathematician (1592-1655).",5.32024,318.2131383,-20.39282551,Satellite Feature,SF,Adopted by IAU,318.1195507,318.3067303,-20.48055077,-20.30509949,France,Europe,Mare Humorum,LAC-93,http://planetarynames.wr.usgs.gov/Feature/9360
Hermann L,Hermann L,1/1/2006,Jacob; Swiss mathematician (1678-1733).,2.81367,300.7706094,2.435338358,Satellite Feature,SF,Adopted by IAU,300.7241726,300.817049,2.388944626,2.481733322,Switzerland,Europe,Hevelius,LAC-56,http://planetarynames.wr.usgs.gov/Feature/9912
Gaudibert C,Gaudibert C,1/1/2006,Casimir Marie; French astronomer (1823-1901).,8.03994,37.79791494,-11.56898153,Satellite Feature,SF,Adopted by IAU,37.66259575,37.93323326,-11.70155144,-11.4364109,France,Europe,Colombo,LAC-79,http://planetarynames.wr.usgs.gov/Feature/9371
Gay-Lussac H,Gay Lussac H,1/1/2006,Joseph Louis; French physicist (1778-1850).,5.01126,336.6690858,13.4119598,Satellite Feature,SF,Adopted by IAU,336.5841389,336.754034,13.32932854,13.49459267,France,Europe,Copernicus,LAC-58,http://planetarynames.wr.usgs.gov/Feature/9409
Geminus G,Geminus G,1/1/2006,Greek astronomer (unkn-c. 70 B.C.).,14.837,48.57465385,30.7968651,Satellite Feature,SF,Adopted by IAU,48.29044533,48.8579464,30.58111382,31.0147686,Greek,Europe,Macrobius,LAC-43,http://planetarynames.wr.usgs.gov/Feature/9431
Gerard Q Outer,Gerard Q Outer,1/1/2006,Alexander; Scottish explorer (1792-1839).,192.481,275.4529069,46.51222223,Satellite Feature,SF,Adopted by IAU,270.8385258,280.0672894,43.33841515,49.68602943,Scotland,Europe,Lavoisier,LAC-22,http://planetarynames.wr.usgs.gov/Feature/9472
Guericke J,Guericke J,1/1/2006,"Otto von; German physicist, engineer, naturalist (1602-1686).",6.99329,346.574884,-10.61861905,Satellite Feature,SF,Adopted by IAU,346.4831982,346.6693897,-10.73880005,-10.51215744,Germany,Europe,Montes Riphaeus,LAC-76,http://planetarynames.wr.usgs.gov/Feature/9601
Halley K,Halley K,1/1/2006,Edmond; British astronomer (1656-1742).,4.4501,5.818406054,-8.567852483,Satellite Feature,SF,Adopted by IAU,5.744203568,5.89261055,-8.64122963,-8.494474411,Great Britain,Europe,Ptolemaeus,LAC-77,http://planetarynames.wr.usgs.gov/Feature/9695
Hercules E,Hercules E,1/1/2006,Latin spelling for Greek mythological hero Heracles.,9.98423,38.69957434,45.79939283,Satellite Feature,SF,Adopted by IAU,38.4949398,38.90420723,45.64135933,45.95782661,Greek,Europe,Geminus,LAC-27,http://planetarynames.wr.usgs.gov/Feature/9892
Hell Q,Hell Q,1/1/2006,Maximilian; Hungarian astronomer (1720-1792).,3.74917,355.5312163,-32.99657102,Satellite Feature,SF,Adopted by IAU,355.4664669,355.6020947,-33.05590248,-32.93335915,Hungary,Europe,Tycho,LAC-112,http://planetarynames.wr.usgs.gov/Feature/9840
Herigonius G,Herigonius G,1/1/2006,"Herigone, Pierre; French mathematician, astronomer (fl. 1634).",3.16677,327.541684,-15.27419816,Satellite Feature,SF,Adopted by IAU,327.4875584,327.5958157,-15.32641411,-15.22198105,France,Europe,Letronne,LAC-75,http://planetarynames.wr.usgs.gov/Feature/9900
Herodotus E,Herodotus E,1/1/2006,Of Halikarnassus; Greek historian (c. 484-408 B.C.).,36.5505,308.4760504,29.34927571,Satellite Feature,SF,Adopted by IAU,307.820631,309.1437092,28.75416756,29.94433403,Greek,Europe,Seleucus,LAC-38,http://planetarynames.wr.usgs.gov/Feature/9919
Herodotus N,Herodotus N,1/1/2006,Of Halikarnassus; Greek historian (c. 484-408 B.C.).,4.3245,309.8836089,23.64451056,Satellite Feature,SF,Adopted by IAU,309.805769,309.9614506,23.57320595,23.71581841,Greek,Europe,Seleucus,LAC-38,http://planetarynames.wr.usgs.gov/Feature/9924
Jules Verne Y,Jules Verne Y,1/1/2006,French writer (1828-1905).,22.016,146.359485,-31.44639751,Satellite Feature,SF,Adopted by IAU,145.9800434,146.7996159,-31.70016289,-31.15723991,France,Europe,Gagarin,LAC-102,http://planetarynames.wr.usgs.gov/Feature/10240
Herschel J,Herschel J,1/1/2006,Sir William; German-born British astronomer (1738-1822).,4.84728,355.7187105,-6.421687806,Satellite Feature,SF,Adopted by IAU,355.6382809,355.7991428,-6.501613617,-6.341760635,Great Britain,Europe,Ptolemaeus,LAC-77,http://planetarynames.wr.usgs.gov/Feature/9935
Horrebow G,Horrebow G,1/1/2006,Peder; Danish astronomer (1679-1764).,7.06556,318.1587855,59.82238875,Satellite Feature,SF,Adopted by IAU,317.9270649,318.3905087,59.70588493,59.93889427,Denmark,Europe,J. Herschel,LAC-11,http://planetarynames.wr.usgs.gov/Feature/10060
Isidorus V,Isidorus V,1/1/2006,St. Isidore of Seville; Spanish astronomer and encyclopaedist (c. 560-636).,3.85454,30.81481208,-8.88438898,Satellite Feature,SF,Adopted by IAU,30.7571125,30.87251472,-8.946849823,-8.821928024,Spain,Europe,Colombo,LAC-79,http://planetarynames.wr.usgs.gov/Feature/10153
Hyginus B,Hyginus B,1/1/2006,Caius Julius; Spanish astronomer (fl. first century B.C.).,4.84677,5.07127175,7.608864724,Satellite Feature,SF,Adopted by IAU,4.990644455,5.151899338,7.52894783,7.688783646,Spain,Europe,Mare Vaporum,LAC-59,http://planetarynames.wr.usgs.gov/Feature/10083
Lacroix E,Lacroix E,1/1/2006,Sylvestre Francois; French mathematician (1765-1843).,20.3344,296.9728722,-39.9745413,Satellite Feature,SF,Adopted by IAU,296.4865437,297.3560085,-40.30943298,-39.63964462,France,Europe,Vallis Inghirami,LAC-109,http://planetarynames.wr.usgs.gov/Feature/10503
Hyginus F,Hyginus F,1/1/2006,Caius Julius; Spanish astronomer (fl. first century B.C.).,3.80882,8.60625417,7.990526039,Satellite Feature,SF,Adopted by IAU,8.542837143,8.669675827,7.927724838,8.053331375,Spain,Europe,Mare Vaporum,LAC-59,http://planetarynames.wr.usgs.gov/Feature/10087
Hyginus H,Hyginus H,1/1/2006,Caius Julius; Spanish astronomer (fl. first century B.C.).,3.42495,7.009931292,5.94248309,Satellite Feature,SF,Adopted by IAU,6.95315361,7.066709518,5.886011124,5.99895668,Spain,Europe,Mare Vaporum,LAC-59,http://planetarynames.wr.usgs.gov/Feature/10089
Ingalls Z,Ingalls Z,1/1/2006,Albert Graham; American optician (1888-1958).,25.8459,206.5259311,30.09289205,Satellite Feature,SF,Adopted by IAU,206.0704823,206.9604015,29.71122932,30.46789742,American,North America,Cockcroft,LAC-51,http://planetarynames.wr.usgs.gov/Feature/10125
Janssen R,Janssen R,1/1/2006,Pierre Jules César; French astronomer (1824-1907).,22.9008,38.70004661,-48.28005043,Satellite Feature,SF,Adopted by IAU,38.26849174,39.11438942,-48.66693687,-47.91205406,France,Europe,Hommel,LAC-127,http://planetarynames.wr.usgs.gov/Feature/10217
Jacobi Q,Jacobi Q,1/1/2006,Karl Gustav Jacob; German mathematician (1804-1851).,3.9242,14.02612477,-55.84784527,Satellite Feature,SF,Adopted by IAU,13.91086769,14.14138603,-55.91254997,-55.78313828,Germany,Europe,Hommel,LAC-127,http://planetarynames.wr.usgs.gov/Feature/10183
Jansen G,Jansen G,1/1/2006,"Janszoon, Zacharias; Dutch optician (1580-c. 1638).",5.56523,26.0201846,9.300743604,Satellite Feature,SF,Adopted by IAU,25.92719841,26.11317253,9.208978653,9.392507553,The Netherlands (Dutch),Europe,Julius Caesar,LAC-60,http://planetarynames.wr.usgs.gov/Feature/10192
Jansky D,Jansky D,1/1/2006,Karl Guthe; American radio engineer (1905-1950).,23.0246,91.25330837,9.556362683,Satellite Feature,SF,Adopted by IAU,90.86992455,91.63028908,9.235452652,9.91435051,American,North America,Babcock,LAC-64,http://planetarynames.wr.usgs.gov/Feature/10201
Lacroix R,Lacroix R,1/1/2006,Sylvestre Francois; French mathematician (1765-1843).,19.1483,299.7798957,-34.43510661,Satellite Feature,SF,Adopted by IAU,299.4459248,300.1240711,-34.76065254,-34.13069153,France,Europe,Schickard,LAC-110,http://planetarynames.wr.usgs.gov/Feature/10513
Janssen Q,Janssen Q,1/1/2006,Pierre Jules César; French astronomer (1824-1907).,4.94468,39.36424415,-46.34951587,Satellite Feature,SF,Adopted by IAU,39.2461338,39.48235512,-46.43104744,-46.26798248,France,Europe,Rheita,LAC-114,http://planetarynames.wr.usgs.gov/Feature/10216
Kant N,Kant N,1/1/2006,Immanuel; German philosopher (1724-1804).,9.05227,19.71479006,-9.914911858,Satellite Feature,SF,Adopted by IAU,19.56326485,19.86631584,-10.06417465,-9.765649796,Germany,Europe,Theophilus,LAC-78,http://planetarynames.wr.usgs.gov/Feature/10266
Rheita E,Rheita E,1/1/2006,"Anton Maria Schyrle of Rhaetia; Czechoslovakian astronomer, optician (c. 1597-1660).",67.7224,48.91714376,-34.23965293,Satellite Feature,SF,Adopted by IAU,48.19314003,49.68538475,-35.29237938,-33.14670944,Czechoslovakia,Europe,Rheita,LAC-114,http://planetarynames.wr.usgs.gov/Feature/12565
Kapteyn Z,Kapteyn Z,1/1/2006,Jacobus Cornelis; Dutch astronomer (1851-1922).,6.65203,72.56417747,-11.2059171,Satellite Feature,SF,Adopted by IAU,72.45236015,72.67599678,-11.31560135,-11.09623146,The Netherlands (Dutch),Europe,Ansgarius,LAC-81,http://planetarynames.wr.usgs.gov/Feature/10280
Kästner G,Kastner G,1/1/2006,"Abraham Gotthelf; German mathematician, physicist (1719-1800).",95.6644,79.34714838,-3.677363268,Satellite Feature,SF,Adopted by IAU,77.82667351,80.84170341,-4.940856934,-2.278240204,Germany,Europe,Ansgarius,LAC-81,http://planetarynames.wr.usgs.gov/Feature/10286
Kelvin A,Kelvin A,1/1/2006,Named for Promontorium Kelvin.,7.36015,328.4261103,-27.48680334,Satellite Feature,SF,Adopted by IAU,328.2893085,328.5629139,-27.60816383,-27.36544228,Scotland,Europe,Mare Humorum,LAC-93,http://planetarynames.wr.usgs.gov/Feature/10298
Rocca Q,Rocca Q,1/1/2006,Giovanni Antonio; Italian mathematician (1607-1656).,58.5093,290.8615552,-15.29283068,Satellite Feature,SF,Adopted by IAU,289.8810177,291.8280544,-16.13162041,-14.46123886,Italy,Europe,Grimaldi,LAC-74,http://planetarynames.wr.usgs.gov/Feature/12641
Kirch F,Kirch F,1/1/2006,Gottfried; German astronomer (1639-1710).,4.05979,353.9519986,38.00505929,Satellite Feature,SF,Adopted by IAU,353.8670444,354.0369549,37.93811989,38.0720005,Germany,Europe,Cassini,LAC-25,http://planetarynames.wr.usgs.gov/Feature/10345
Kinau P,Kinau P,1/1/2006,Adolph Gottfried; German selenographer (1814-1887).,4.95279,17.36024275,-61.42437807,Satellite Feature,SF,Adopted by IAU,17.18945122,17.53103828,-61.50604439,-61.34271049,Germany,Europe,Hommel,LAC-127,http://planetarynames.wr.usgs.gov/Feature/10339
Krusenstern A,Krusenstern A,1/1/2006,"Adam Johann, Baron Von; Russian explorer (1770-1846).",4.89252,5.80138329,-26.97859997,Satellite Feature,SF,Adopted by IAU,5.710859299,5.891908646,-27.05927277,-26.89792633,Russia,Europe,Purbach,LAC-95,http://planetarynames.wr.usgs.gov/Feature/10443
Kugler U,Kugler U,1/1/2006,Franz Xaver; German-Babylonian chronologist (1862-1929).,35.3959,101.7394393,-53.59111038,Satellite Feature,SF,Adopted by IAU,100.8237591,102.6119251,-54.15691376,-52.93622398,Germany,Europe,Fechner,LAC-130,http://planetarynames.wr.usgs.gov/Feature/10448
Lacroix G,Lacroix G,1/1/2006,Sylvestre Francois; French mathematician (1765-1843).,48.7686,300.7508284,-36.61635854,Satellite Feature,SF,Adopted by IAU,299.7493191,301.7508793,-37.26896667,-36.02040672,France,Europe,Schickard,LAC-110,http://planetarynames.wr.usgs.gov/Feature/10505
Lacroix J,Lacroix J,1/1/2006,Sylvestre Francois; French mathematician (1765-1843).,20.1264,300.5734623,-38.37333587,Satellite Feature,SF,Adopted by IAU,300.1738491,300.9566898,-38.65966797,-38.07431984,France,Europe,Schickard,LAC-110,http://planetarynames.wr.usgs.gov/Feature/10507
Lade X,Lade X,1/1/2006,Heinrich Eduard von; German astronomer (1817-1904).,2.93574,11.03798257,-1.717423016,Satellite Feature,SF,Adopted by IAU,10.98955345,11.08641243,-1.765829086,-1.669015884,Germany,Europe,Theophilus,LAC-78,http://planetarynames.wr.usgs.gov/Feature/10524
Lansberg B,Lansberg B,1/1/2006,Philippe van; Belgian astronomer (1561-1632).,8.99909,331.8605939,-2.493900358,Satellite Feature,SF,Adopted by IAU,331.7120686,332.0091228,-2.642286301,-2.345514297,Belgium,Europe,Montes Riphaeus,LAC-76,http://planetarynames.wr.usgs.gov/Feature/10626
Lansberg L,Lansberg L,1/1/2006,Philippe van; Belgian astronomer (1561-1632).,4.10274,333.593693,-3.555930625,Satellite Feature,SF,Adopted by IAU,333.5259151,333.6614742,-3.623580933,-3.488279343,Belgium,Europe,Montes Riphaeus,LAC-76,http://planetarynames.wr.usgs.gov/Feature/10632
Lavoisier A,Lavoisier A,1/1/2006,Antoine Laurent; French chemist (1743-1794).,28.5149,286.736089,36.97261099,Satellite Feature,SF,Adopted by IAU,286.2253628,287.3675022,36.50263023,37.44251823,France,Europe,Lavoisier,LAC-22,http://planetarynames.wr.usgs.gov/Feature/10669
Lavoisier L,Lavoisier L,1/1/2006,Antoine Laurent; French chemist (1743-1794).,6.41967,285.0241923,39.7363518,Satellite Feature,SF,Adopted by IAU,284.8865414,285.1618443,39.63049889,39.84220695,France,Europe,Lavoisier,LAC-22,http://planetarynames.wr.usgs.gov/Feature/10679
Lichtenberg H,Lichtenberg H,1/1/2006,Georg Christoph; German physicist (1742-1799).,4.1827,301.0972283,31.51580863,Satellite Feature,SF,Adopted by IAU,301.0163288,301.178133,31.44684029,31.58477592,Germany,Europe,Seleucus,LAC-38,http://planetarynames.wr.usgs.gov/Feature/10807
Lick G,Lick G,1/1/2006,James; American benefactor (1796-1876).,4.77871,50.92058597,10.07388859,Satellite Feature,SF,Adopted by IAU,50.84055901,51.00061607,9.995092392,10.15268517,American,North America,Mare Undarum,LAC-62,http://planetarynames.wr.usgs.gov/Feature/10815
Lippershey T,Lippershey T,1/1/2006,Hans (Jan Lapprey); Dutch optician (unkn-1619).,4.93473,348.8674529,-25.30134099,Satellite Feature,SF,Adopted by IAU,348.7774525,348.9574566,-25.3827095,-25.21997261,The Netherlands (Dutch),Europe,Pitatus,LAC-94,http://planetarynames.wr.usgs.gov/Feature/10866
Longomontanus E,Longomontanus E,1/1/2006,"Christian Sorensen; Danish astronomer, mathematician (1562-1647).",6.16657,341.8939121,-51.34609881,Satellite Feature,SF,Adopted by IAU,341.7311268,342.0567036,-51.4477787,-51.24441719,Denmark,Europe,Clavius,LAC-126,http://planetarynames.wr.usgs.gov/Feature/10910
Lubbock M,Lubbock M,1/1/2006,"Sir John William; British astronomer, mathematician (1803-1865).",22.1567,38.69277816,-0.405094168,Satellite Feature,SF,Adopted by IAU,38.42241096,39.01846886,-0.68655014,-0.05301857,Great Britain,Europe,Colombo,LAC-79,http://planetarynames.wr.usgs.gov/Feature/10954
Maskelyne J,Maskelyne J,1/1/2006,Nevil; British astronomer (1732-1811).,3.68796,32.62902281,3.135141551,Satellite Feature,SF,Adopted by IAU,32.56812096,32.68992424,3.074331284,3.195951462,Great Britain,Europe,Taruntius,LAC-61,http://planetarynames.wr.usgs.gov/Feature/11208
Lyell C,Lyell C,1/1/2006,Sir Charles; Scottish geologist (1797-1875).,4.14601,39.39109145,15.14186069,Satellite Feature,SF,Adopted by IAU,39.32026863,39.46191597,15.07349968,15.21022606,Scotland,Europe,Taruntius,LAC-61,http://planetarynames.wr.usgs.gov/Feature/10978
Maclear A,Maclear A,1/1/2006,Sir Thomas; Irish-born South African astronomer (1794-1879).,4.11069,18.00203697,11.30417647,Satellite Feature,SF,Adopted by IAU,17.93291664,18.07116127,11.23639488,11.37195778,Ireland,Europe,Julius Caesar,LAC-60,http://planetarynames.wr.usgs.gov/Feature/11018
Seeliger T,Seeliger T,1/1/2006,Hugo von; German astronomer (1849-1924).,3.32102,4.306962467,-2.202983993,Satellite Feature,SF,Adopted by IAU,4.252161026,4.361764908,-2.257743835,-2.148223877,Germany,Europe,Ptolemaeus,LAC-77,http://planetarynames.wr.usgs.gov/Feature/13029
Maginus Q,Maginus Q,1/1/2006,"Magini, Giovanni Antonio; Italian astronomer, mathematician (1555-1617).",9.23811,357.6726383,-50.8517102,Satellite Feature,SF,Adopted by IAU,357.4383183,357.9071026,-51.01437378,-50.68914223,Italy,Europe,Clavius,LAC-126,http://planetarynames.wr.usgs.gov/Feature/11056
Marco Polo G,Marco Polo G,1/1/2006,Italian explorer (1254-1324).,4.42309,358.0653188,16.7204619,Satellite Feature,SF,Adopted by IAU,357.9891682,358.1414738,16.64753151,16.79339409,Italy,Europe,Montes Apenninus,LAC-41,http://planetarynames.wr.usgs.gov/Feature/11144
Marius J,Marius J,1/1/2006,"Mayer, Simon; German astronomer (1573-1624).",2.98301,313.0938136,10.45125991,Satellite Feature,SF,Adopted by IAU,313.0437984,313.1438313,10.40207481,10.50044823,Germany,Europe,Kepler,LAC-57,http://planetarynames.wr.usgs.gov/Feature/11183
Marius Y,Marius Y,1/1/2006,"Mayer, Simon; German astronomer (1573-1624).",2.52475,309.2261864,9.779871184,Satellite Feature,SF,Adopted by IAU,309.1839428,309.2684307,9.738241196,9.821500778,Germany,Europe,Hevelius,LAC-56,http://planetarynames.wr.usgs.gov/Feature/11196
Marth K,Marth K,1/1/2006,Albert; German astronomer (1828-1897).,3.02196,331.2276439,-29.96091768,Satellite Feature,SF,Adopted by IAU,331.1701298,331.285162,-30.010746,-29.91108894,Germany,Europe,Pitatus,LAC-94,http://planetarynames.wr.usgs.gov/Feature/11201
Maskelyne B,Maskelyne B,1/1/2006,Nevil; British astronomer (1732-1811).,8.34478,28.96468303,1.970193117,Satellite Feature,SF,Adopted by IAU,28.82700539,29.10236168,1.832597733,2.107789993,Great Britain,Europe,Julius Caesar,LAC-60,http://planetarynames.wr.usgs.gov/Feature/11203
Maskelyne G,Maskelyne G,1/1/2006,Nevil; British astronomer (1732-1811).,5.84513,26.6971988,2.298794813,Satellite Feature,SF,Adopted by IAU,26.60074043,26.7936573,2.202417374,2.395174026,Great Britain,Europe,Julius Caesar,LAC-60,http://planetarynames.wr.usgs.gov/Feature/11207
Maupertuis B,Maupertuis B,1/1/2006,Pierre Louis Moreau de; French mathematician (1698-1759).,6.07489,333.2001344,51.37145544,Satellite Feature,SF,Adopted by IAU,333.0396786,333.3605938,51.27128792,51.47162437,France,Europe,J. Herschel,LAC-11,http://planetarynames.wr.usgs.gov/Feature/11225
Maurolycus P,Maurolycus P,1/1/2006,"Maurolico, Francesco; Italian mathematician (1494-1575).",3.9359,12.69404189,-38.12734413,Satellite Feature,SF,Adopted by IAU,12.61153984,12.77654457,-38.19224167,-38.06244469,Italy,Europe,Maurolycus,LAC-113,http://planetarynames.wr.usgs.gov/Feature/11242
Maury K,Maury K,1/1/2006,Matthew Fontaine; American oceanographer (1806-1873); Antonia Caetana de Paiva Pereira; American astronomer (1866-1952).,5.20225,41.07000654,39.47381801,Satellite Feature,SF,Adopted by IAU,40.95888329,41.18113136,39.38804054,39.55959892,American,North America,Geminus,LAC-27,http://planetarynames.wr.usgs.gov/Feature/11252
Mercator E,Mercator E,1/1/2006,"Gerard De Kremer (Gerhardus Mercator); Belgian cartographer, geographer, mathematician (1512-1594).",5.32724,333.1473081,-30.10246332,Satellite Feature,SF,Adopted by IAU,333.0457745,333.2488422,-30.1903038,-30.01462173,Belgium,Europe,Pitatus,LAC-94,http://planetarynames.wr.usgs.gov/Feature/11335
Mercurius D,Mercurius D,1/1/2006,Mercury; Roman mythical messenger.,69.4784,69.00211542,46.12959994,Satellite Feature,SF,Adopted by IAU,67.53244209,70.47179222,45.07694054,47.22797966,Roman,Europe,Gauss,LAC-28,http://planetarynames.wr.usgs.gov/Feature/11344
Short B,Short B,1/1/2006,"James; Scottish mathematician, optician (1710-1768).",89.8391,354.8276288,-75.89260904,Satellite Feature,SF,Adopted by IAU,347.5498066,358.8762226,-76.3209362,-74.41667938,Scotland,Europe,Moretus,LAC-137,http://planetarynames.wr.usgs.gov/Feature/13079
Milichius A,Milichius A,1/1/2006,"Milich, Jacob; German doctor, mathematician, astronomer (1501-1559).",8.2284,327.9335166,9.254415346,Satellite Feature,SF,Adopted by IAU,327.7960529,328.0709858,9.118738174,9.39009285,Germany,Europe,Kepler,LAC-57,http://planetarynames.wr.usgs.gov/Feature/11413
Miller E,Miller E,1/1/2006,William Allen; British chemist (1817-1870).,5.8693,2.754059229,-38.92724775,Satellite Feature,SF,Adopted by IAU,2.629655838,2.878461838,-39.02402496,-38.83046913,Great Britain,Europe,Tycho,LAC-112,http://planetarynames.wr.usgs.gov/Feature/11422
Mösting L,Mosting L,1/1/2006,Johan Sigismund von; Danish benefactor (1759-1843).,3.01703,356.5688715,-0.68988422,Satellite Feature,SF,Adopted by IAU,356.5191212,356.6186237,-0.739631653,-0.640136719,Denmark,Europe,Ptolemaeus,LAC-77,http://planetarynames.wr.usgs.gov/Feature/11490
Mutus J,Mutus J,1/1/2006,"Vincente Mut, or Muth; Spanish astronomer (unkn-1673).",7.15203,23.28988178,-62.81174596,Satellite Feature,SF,Adopted by IAU,23.03178596,23.54797935,-62.92967415,-62.69381523,Spain,Europe,Hommel,LAC-127,http://planetarynames.wr.usgs.gov/Feature/11513
Neander M,Neander M,1/1/2006,"Neumann, Michael; German mathematician (1529-1581).",8.60276,37.66205123,-34.85161719,Satellite Feature,SF,Adopted by IAU,37.48919106,37.83491325,-34.99346733,-34.70976639,Germany,Europe,Rheita,LAC-114,http://planetarynames.wr.usgs.gov/Feature/11558
Nearch M,Nearch M,1/1/2006,Nearchus of Crete; Greek explorer (unkn-fl. 312 B.C.).,7.50939,35.14646821,-58.61207443,Satellite Feature,SF,Adopted by IAU,34.90868187,35.38425636,-58.73589516,-58.48825264,Greek,Europe,Hommel,LAC-127,http://planetarynames.wr.usgs.gov/Feature/11582
Nonius F,Nonius F,1/1/2006,Pedro Nuñez Salaciense; Portuguese mathematician (1502-1578).,6.98943,3.735721915,-35.92723098,Satellite Feature,SF,Adopted by IAU,3.593400955,3.878046036,-36.04247856,-35.81198311,Portugal,Europe,Tycho,LAC-112,http://planetarynames.wr.usgs.gov/Feature/11667
Opelt E,Opelt E,1/1/2006,"Friedrich Wilhelm; German astronomer (1794-1863), Otto Moritz; German astronomer (1829-1912).",7.38491,342.0901191,-17.04277588,Satellite Feature,SF,Adopted by IAU,341.962759,342.2174816,-17.16454506,-16.92100525,Germany,Europe,Pitatus,LAC-94,http://planetarynames.wr.usgs.gov/Feature/11722
Orontius B,Orontius B,1/1/2006,"Oronce Fine (Orontius Finaeus Delphinatus); French mathematician, cartographer (1494-1555).",8.74648,356.8374389,-39.96470224,Satellite Feature,SF,Adopted by IAU,356.649271,357.02561,-40.10892105,-39.82048225,France,Europe,Tycho,LAC-112,http://planetarynames.wr.usgs.gov/Feature/11742
Parry L,Parry L,1/1/2006,William Edward; British explorer (1790-1855).,6.31872,345.3014102,-6.316897904,Satellite Feature,SF,Adopted by IAU,345.1965847,345.4062366,-6.421087265,-6.21270752,Great Britain,Europe,Montes Riphaeus,LAC-76,http://planetarynames.wr.usgs.gov/Feature/11838
Piazzi C,Piazzi C,1/1/2006,Giuseppe; Italian astronomer (1746-1826).,28.0401,297.2474237,-37.15353812,Satellite Feature,SF,Adopted by IAU,296.7298908,297.7524586,-37.61574745,-36.69132805,Italy,Europe,Vallis Inghirami,LAC-109,http://planetarynames.wr.usgs.gov/Feature/11970
Piazzi Smyth W,Piazzi Smyth W,1/1/2006,Charles; Italian-born Scottish astronomer (1819-1900).,3.00464,358.1354481,42.2507645,Satellite Feature,SF,Adopted by IAU,358.0685177,358.2023792,42.20122337,42.30031013,Italy,Europe,Cassini,LAC-25,http://planetarynames.wr.usgs.gov/Feature/11982
Pickering C,Pickering C,1/1/2006,Edward Charles; American astronomer (1846-1919); William H.; American astronomer (1858-1938).,3.32135,6.152647704,-1.541541323,Satellite Feature,SF,Adopted by IAU,6.097864151,6.207433701,-1.596305847,-1.486774445,American,North America,Ptolemaeus,LAC-77,http://planetarynames.wr.usgs.gov/Feature/12014
Plinius A,Plinius A,1/1/2006,Gaius Plinius Secundus (The Elder); Roman natural scientist (23-79).,3.45442,24.16805838,12.98671866,Satellite Feature,SF,Adopted by IAU,24.10960579,24.22651482,12.92975807,13.04368019,Roman,Europe,Julius Caesar,LAC-60,http://planetarynames.wr.usgs.gov/Feature/12148
Pons N,Pons N,1/1/2006,Jean Louis; French astronomer (1761-1831).,5.75519,22.92050654,-25.95234348,Satellite Feature,SF,Adopted by IAU,22.8149662,23.02604866,-26.0472393,-25.85744667,France,Europe,Rupes Altai,LAC-96,http://planetarynames.wr.usgs.gov/Feature/12240
Ptolemaeus L,Ptolemaeus L,1/1/2006,"Ptolemy, Claudius; Greek astronomer, mathematician, geographer (c. 87-150).",3.17594,355.9888374,-8.848933922,Satellite Feature,SF,Adopted by IAU,355.9358387,356.0418377,-8.901302338,-8.79656601,Greek,Europe,Ptolemaeus,LAC-77,http://planetarynames.wr.usgs.gov/Feature/12341
Ptolemaeus Y,Ptolemaeus Y,1/1/2006,"Ptolemy, Claudius; Greek astronomer, mathematician, geographer (c. 87-150).",5.97073,0.703755659,-9.366224471,Satellite Feature,SF,Adopted by IAU,0.603975296,0.803537369,-9.464675903,-9.267772675,Greek,Europe,Ptolemaeus,LAC-77,http://planetarynames.wr.usgs.gov/Feature/12350
Puiseux B,Puiseux B,1/1/2006,Pierre; French astronomer (1855-1928).,3.37459,321.0254583,-25.70407155,Satellite Feature,SF,Adopted by IAU,320.9637051,321.0872135,-25.75971413,-25.64842796,France,Europe,Mare Humorum,LAC-93,http://planetarynames.wr.usgs.gov/Feature/12352
Pytheas F,Pytheas F,1/1/2006,"Of Marseilles; Greek navigator, geographer (c. 308 B.C.).",3.8992,340.8574634,16.55029146,Satellite Feature,SF,Adopted by IAU,340.7903919,340.9245358,16.48599815,16.61458778,Greek,Europe,Timocharis,LAC-40,http://planetarynames.wr.usgs.gov/Feature/12404
Rabbi Levi N,Rabbi Levi N,1/1/2006,"Gershon, Levi Ben; French philosopher, mathematician, astronomer (1288-1344).",8.85588,23.58721326,-36.51182448,Satellite Feature,SF,Adopted by IAU,23.44064522,23.73398399,-36.64172173,-36.38196564,France,Europe,Maurolycus,LAC-113,http://planetarynames.wr.usgs.gov/Feature/12426
Réaumur C,Reaumur C,1/1/2006,René-Antoine Ferchault de; French physicist (1683-1757).,4.26911,0.205950691,-3.496432484,Satellite Feature,SF,Adopted by IAU,0.135427475,0.276475906,-3.566825867,-3.426038742,France,Europe,Ptolemaeus,LAC-77,http://planetarynames.wr.usgs.gov/Feature/12458
Šafařík A,Safarik A,1/1/2006,Vojtech; Czechoslovakian astronomer (1829-1902).,21.2386,176.9756362,12.50258875,Satellite Feature,SF,Adopted by IAU,176.6496525,177.3016224,12.17607689,12.83280754,Czechoslovakia,Europe,Sharonov,LAC-68,http://planetarynames.wr.usgs.gov/Feature/12784
Reiner M,Reiner M,1/1/2006,"Reinieri, Vincentio; Italian astronomer, mathematician (unkn-1648).",2.99672,303.7536847,8.622333606,Satellite Feature,SF,Adopted by IAU,303.7037067,303.8036633,8.57292366,8.671747208,Italy,Europe,Hevelius,LAC-56,http://planetarynames.wr.usgs.gov/Feature/12524
Reiner S,Reiner S,1/1/2006,"Reinieri, Vincentio; Italian astronomer, mathematician (unkn-1648).",3.38583,309.1636691,2.259670768,Satellite Feature,SF,Adopted by IAU,309.1077976,309.2195415,2.20384407,2.315500259,Italy,Europe,Hevelius,LAC-56,http://planetarynames.wr.usgs.gov/Feature/12528
Rocca M,Rocca M,1/1/2006,Giovanni Antonio; Italian mathematician (1607-1656).,44.1342,289.1134902,-14.57001738,Satellite Feature,SF,Adopted by IAU,288.3103619,289.7952785,-15.09591675,-14.047575,Italy,Europe,Riccioli,LAC-73,http://planetarynames.wr.usgs.gov/Feature/12638
Römer W,Romer W,1/1/2006,Ole; Danish astronomer (1644-1710).,6.06865,40.41084258,26.4394529,Satellite Feature,SF,Adopted by IAU,40.29908943,40.52259636,26.33938789,26.53951836,Denmark,Europe,Macrobius,LAC-43,http://planetarynames.wr.usgs.gov/Feature/12669
Saunder T,Saunder T,1/1/2006,"Samuel Arthur; British mathematician, selenographer (1852-1912).",4.91115,10.38888063,-4.069738273,Satellite Feature,SF,Adopted by IAU,10.30769539,10.47006416,-4.150716782,-3.988758087,Great Britain,Europe,Theophilus,LAC-78,http://planetarynames.wr.usgs.gov/Feature/12842
Rümker E,Rumker E,1/1/2006,Named for Mons Rümker.,6.78988,302.8611437,38.63774209,Satellite Feature,SF,Adopted by IAU,302.7178135,303.0044765,38.52578545,38.74970055,Germany,Europe,Rümker,LAC-23,http://planetarynames.wr.usgs.gov/Feature/12734
Sabine C,Sabine C,1/1/2006,"Sir Edward; Irish physicist, astronomer (1788-1883).",2.83579,22.92215369,1.021894158,Satellite Feature,SF,Adopted by IAU,22.87538719,22.96891975,0.975137711,1.068655014,Ireland,Europe,Julius Caesar,LAC-60,http://planetarynames.wr.usgs.gov/Feature/12752
Santbech D,Santbech D,1/1/2006,"Daniel Santbech Noviomagus; Dutch mathematician, astronomer (unkn-fl. 1561).",7.43742,45.13640211,-21.1399673,Satellite Feature,SF,Adopted by IAU,45.00491905,45.26788521,-21.26260185,-21.01733208,The Netherlands (Dutch),Europe,Fracastorius,LAC-97,http://planetarynames.wr.usgs.gov/Feature/12802
Santbech K,Santbech K,1/1/2006,"Daniel Santbech Noviomagus; Dutch mathematician, astronomer (unkn-fl. 1561).",9.29386,43.1190594,-19.22574144,Satellite Feature,SF,Adopted by IAU,42.95676231,43.28135872,-19.37898636,-19.07249451,The Netherlands (Dutch),Europe,Fracastorius,LAC-97,http://planetarynames.wr.usgs.gov/Feature/12808
Santbech V,Santbech V,1/1/2006,"Daniel Santbech Noviomagus; Dutch mathematician, astronomer (unkn-fl. 1561).",6.81013,39.33043553,-24.67889431,Satellite Feature,SF,Adopted by IAU,39.20685387,39.45401955,-24.79118538,-24.56660271,The Netherlands (Dutch),Europe,Fracastorius,LAC-97,http://planetarynames.wr.usgs.gov/Feature/12818
Saunder S,Saunder S,1/1/2006,"Samuel Arthur; British mathematician, selenographer (1852-1912).",3.16956,9.743042176,-2.377743181,Satellite Feature,SF,Adopted by IAU,9.690736771,9.795351028,-2.430006027,-2.325479507,Great Britain,Europe,Ptolemaeus,LAC-77,http://planetarynames.wr.usgs.gov/Feature/12841
Saussure B,Saussure B,1/1/2006,Horace Benedict De; Swiss geologist (1740-1799).,3.95448,355.9819952,-42.26875227,Satellite Feature,SF,Adopted by IAU,355.8938808,356.0701122,-42.33395767,-42.20354652,Switzerland,Europe,Tycho,LAC-112,http://planetarynames.wr.usgs.gov/Feature/12844
Scheiner S,Scheiner S,1/1/2006,Christoph; German astronomer (1573-1650).,6.77314,334.6658719,-58.38607677,Satellite Feature,SF,Adopted by IAU,334.4528179,334.8789272,-58.49775887,-58.27439499,Germany,Europe,Schiller,LAC-125,http://planetarynames.wr.usgs.gov/Feature/12868
Schickard L,Schickard L,1/1/2006,"Wilhelm; German astronomer, mathematician (1592-1635).",8.58828,300.196114,-44.12030977,Satellite Feature,SF,Adopted by IAU,299.9988537,300.3933773,-44.26192093,-43.97869682,Germany,Europe,Schickard,LAC-110,http://planetarynames.wr.usgs.gov/Feature/12888
Secchi K,Secchi K,1/1/2006,"Pietro Angelo; Italian astronomer, astrophysicist (1818-1878).",6.00565,45.50021874,-0.174285849,Satellite Feature,SF,Adopted by IAU,45.40119362,45.59924889,-0.273311615,-0.075258255,Italy,Europe,Colombo,LAC-79,http://planetarynames.wr.usgs.gov/Feature/13022
Tacitus M,Tacitus M,1/1/2006,Cornelius; Roman historian (c. 55-120).,5.84737,21.47531038,-13.96826061,Satellite Feature,SF,Adopted by IAU,21.37595558,21.57466698,-14.06467628,-13.87184334,Roman,Europe,Theophilus,LAC-78,http://planetarynames.wr.usgs.gov/Feature/13381
Webb N,Webb N,1/1/2006,Thomas William; British astronomer (1806-1885).,5.86248,63.62405339,-0.320345789,Satellite Feature,SF,Adopted by IAU,63.52738762,63.72072029,-0.417011261,-0.223678589,Great Britain,Europe,Langrenus,LAC-80,http://planetarynames.wr.usgs.gov/Feature/13836
Tisserand A,Tisserand A,1/1/2006,Francois Felix; French astronomer (1845-1896).,24.53,49.47565234,20.35643266,Satellite Feature,SF,Adopted by IAU,49.044981,49.90742683,19.95227623,20.76122856,France,Europe,Macrobius,LAC-43,http://planetarynames.wr.usgs.gov/Feature/13497
Tisserand B,Tisserand B,1/1/2006,Francois Felix; French astronomer (1845-1896).,8.71774,51.37400934,20.64723861,Satellite Feature,SF,Adopted by IAU,51.220438,51.52758217,20.50349236,20.79098701,France,Europe,Cleomedes,LAC-44,http://planetarynames.wr.usgs.gov/Feature/13498
Tisserand D,Tisserand D,1/1/2006,Francois Felix; French astronomer (1845-1896).,5.66654,49.46563957,21.7564204,Satellite Feature,SF,Adopted by IAU,49.36504555,49.5662365,21.66298485,21.84985542,France,Europe,Macrobius,LAC-43,http://planetarynames.wr.usgs.gov/Feature/13499
Hanno K,Hanno K,1/1/2006,Carthaginian navigator(unkn-c. 500 B.C.).,25.3218,76.74220283,-53.61532335,Satellite Feature,SF,Adopted by IAU,76.03817177,77.44623375,-54.03285217,-53.19779396,Roman,Europe,Lyot,LAC-129,http://planetarynames.wr.usgs.gov/Feature/9705
Vening Meinesz T,Vening Meinesz T,1/1/2006,"Felix Andries; Dutch geophysicist, geodesist (1887-1966).",15.6353,159.2365014,-0.293183564,Satellite Feature,SF,Adopted by IAU,158.9786892,159.4943142,-0.550992966,-0.035373688,The Netherlands (Dutch),Europe,Keeler,LAC-85,http://planetarynames.wr.usgs.gov/Feature/13652
Maginus P,Maginus P,1/1/2006,"Magini, Giovanni Antonio; Italian astronomer, mathematician (1555-1617).",10.4752,348.1884001,-50.69847332,Satellite Feature,SF,Adopted by IAU,347.9156666,348.461134,-50.87119865,-50.5257473,Italy,Europe,Clavius,LAC-126,http://planetarynames.wr.usgs.gov/Feature/11055
Malyy G,Malyy G,1/1/2006,Aleksandr L'vovich; Soviet rocketry scientist (1907-1961).,29.2162,107.1077195,21.71832882,Satellite Feature,SF,Adopted by IAU,106.5891666,107.6262722,21.23658562,22.20007515,Soviet,Europe,Joliot,LAC-46,http://planetarynames.wr.usgs.gov/Feature/11095
Sechenov C,Sechenov C,1/1/2006,Ivan Mikhaylovich; Russian physiologist (1829-1905).,17.2772,218.2850847,-5.145397185,Satellite Feature,SF,Adopted by IAU,217.9990482,218.5711269,-5.430280685,-4.860513687,Russia,Europe,Vavilov,LAC-88,http://planetarynames.wr.usgs.gov/Feature/13025
Sharp M,Sharp M,1/1/2006,"Abraham; British astronomer, mathematician (1651-1742).",4.7473,318.5414774,47.38718973,Satellite Feature,SF,Adopted by IAU,318.4258747,318.6570835,47.30891228,47.46546745,Great Britain,Europe,Rümker,LAC-23,http://planetarynames.wr.usgs.gov/Feature/13065
Stöfler N,Stofler N,1/1/2006,"Johann; German astronomer, mathematician (1452-1531).",14.1909,6.606303908,-41.90655164,Satellite Feature,SF,Adopted by IAU,6.291955948,6.920610428,-42.08247185,-41.73063087,Germany,Europe,Tycho,LAC-112,http://planetarynames.wr.usgs.gov/Feature/13274
Sechenov P,Sechenov P,1/1/2006,Ivan Mikhaylovich; Russian physiologist (1829-1905).,21.084,215.8023153,-9.749141745,Satellite Feature,SF,Adopted by IAU,215.4495564,216.155077,-10.09679413,-9.40148735,Russia,Europe,Vavilov,LAC-88,http://planetarynames.wr.usgs.gov/Feature/13026
Segers H,Segers H,1/1/2006,Carlos; Argentinean astronomer (1900-1967).,30.2441,128.9205013,46.53482705,Satellite Feature,SF,Adopted by IAU,128.3353977,129.5045681,46.04043388,47.02919579,Argentina,South and Central America,Millikan,LAC-30,http://planetarynames.wr.usgs.gov/Feature/13030
Ptolemaeus G,Ptolemaeus G,1/1/2006,"Ptolemy, Claudius; Greek astronomer, mathematician, geographer (c. 87-150).",9.4151,0.023017332,-7.147366471,Satellite Feature,SF,Adopted by IAU,359.8716717,360.1733793,-7.274501801,-7.020227432,Greek,Europe,Ptolemaeus,LAC-77,http://planetarynames.wr.usgs.gov/Feature/12337
Sharp U,Sharp U,1/1/2006,"Abraham; British astronomer, mathematician (1651-1742).",6.32585,311.3189807,47.40773311,Satellite Feature,SF,Adopted by IAU,311.1648884,311.4730778,47.30342674,47.51204109,Great Britain,Europe,Rümker,LAC-23,http://planetarynames.wr.usgs.gov/Feature/13066
Ptolemaeus T,Ptolemaeus T,1/1/2006,"Ptolemy, Claudius; Greek astronomer, mathematician, geographer (c. 87-150).",6.5555,359.9891749,-7.486240351,Satellite Feature,SF,Adopted by IAU,359.8801556,360.0971998,-7.594333649,-7.378147125,Greek,Europe,Ptolemaeus,LAC-77,http://planetarynames.wr.usgs.gov/Feature/12347
Sharp V,Sharp V,1/1/2006,"Abraham; British astronomer, mathematician (1651-1742).",6.64211,312.9439741,46.23461251,Satellite Feature,SF,Adopted by IAU,312.7856655,313.1022854,46.12509346,46.34413338,Great Britain,Europe,Rümker,LAC-23,http://planetarynames.wr.usgs.gov/Feature/13067
Shayn B,Shayn B,1/1/2006,Grigorii Abramovich; Soviet astrophysicist (1892-1956).,35.7218,173.4866239,34.47317588,Satellite Feature,SF,Adopted by IAU,172.7721539,174.2010975,33.884161,35.0621891,Soviet,Europe,Chandler,LAC-32,http://planetarynames.wr.usgs.gov/Feature/13069
Taruntius H,Taruntius H,1/1/2006,"Firmanus, Lucius; Roman philosopher (unkn-fl. 86 B.C.).",8.58648,49.87616733,0.327158426,Satellite Feature,SF,Adopted by IAU,49.7345829,50.01775169,0.185575485,0.468740463,Roman,Europe,Taruntius,LAC-61,http://planetarynames.wr.usgs.gov/Feature/13407
Shayn F,Shayn F,1/1/2006,Grigorii Abramovich; Soviet astrophysicist (1892-1956).,36.8829,175.3927097,32.97037535,Satellite Feature,SF,Adopted by IAU,174.6680355,176.1174145,32.36221123,33.57853889,Soviet,Europe,Chandler,LAC-32,http://planetarynames.wr.usgs.gov/Feature/13070
South D,South D,1/1/2006,James; British astronomer (1785-1867).,6.16042,310.8739124,55.2721237,Satellite Feature,SF,Adopted by IAU,310.6956234,311.052206,55.17054558,55.37370491,Great Britain,Europe,J. Herschel,LAC-11,http://planetarynames.wr.usgs.gov/Feature/13166
South E,South E,1/1/2006,James; British astronomer (1785-1867).,8.11097,306.9966703,56.69502542,Satellite Feature,SF,Adopted by IAU,306.7546673,307.2394619,56.55952644,56.83083916,Great Britain,Europe,Pythagoras,LAC-10,http://planetarynames.wr.usgs.gov/Feature/13167
South F,South F,1/1/2006,James; British astronomer (1785-1867).,6.51662,305.9085728,57.12850593,Satellite Feature,SF,Adopted by IAU,305.7117481,306.1059246,57.01954842,57.23767281,Great Britain,Europe,Pythagoras,LAC-10,http://planetarynames.wr.usgs.gov/Feature/13168
South H,South H,1/1/2006,James; British astronomer (1785-1867).,5.51048,311.8192847,57.25020697,Satellite Feature,SF,Adopted by IAU,311.6527309,311.9857807,57.17451286,57.32589912,Great Britain,Europe,J. Herschel,LAC-11,http://planetarynames.wr.usgs.gov/Feature/13170
South M,South M,1/1/2006,James; British astronomer (1785-1867).,5.71517,308.9803312,55.31429702,Satellite Feature,SF,Adopted by IAU,308.8161983,309.1448269,55.21796989,55.41075325,Great Britain,Europe,Pythagoras,LAC-10,http://planetarynames.wr.usgs.gov/Feature/13172
Spallanzani A,Spallanzani A,1/1/2006,"Lazzaro; Italian natural scientist, biologist (1729-1799).",6.6543,25.61778249,-46.31628114,Satellite Feature,SF,Adopted by IAU,25.45887566,25.77668953,-46.4260025,-46.20655823,Italy,Europe,Maurolycus,LAC-113,http://planetarynames.wr.usgs.gov/Feature/13173
Spallanzani D,Spallanzani D,1/1/2006,"Lazzaro; Italian natural scientist, biologist (1729-1799).",6.28837,28.57013082,-46.18652679,Satellite Feature,SF,Adopted by IAU,28.4203167,28.71994972,-46.29021454,-46.08283806,Italy,Europe,Maurolycus,LAC-113,http://planetarynames.wr.usgs.gov/Feature/13174
Stöfler O,Stofler O,1/1/2006,"Johann; German astronomer, mathematician (1452-1531).",9.16996,1.193070657,-43.36885568,Satellite Feature,SF,Adopted by IAU,0.985040665,1.400938034,-43.52024269,-43.21783638,Germany,Europe,Tycho,LAC-112,http://planetarynames.wr.usgs.gov/Feature/13275
Struve G,Struve G,1/1/2006,Otto Wilhelm von; German-born Russian astronomer (1819-1905); Otto; American astronomer (1897-1963); Friedrich Georg Wilhelm von; German-born Russian astronomer (1793-1864).,14.278,285.9971178,23.89603539,Satellite Feature,SF,Adopted by IAU,285.7396488,286.2545872,23.66060829,24.131464,Russia,Europe,Russell,LAC-37,http://planetarynames.wr.usgs.gov/Feature/13324
Struve H,Struve H,1/1/2006,Otto Wilhelm von; German-born Russian astronomer (1819-1905); Otto; American astronomer (1897-1963); Friedrich Georg Wilhelm von; German-born Russian astronomer (1793-1864).,21.1692,276.6441856,25.1821561,Satellite Feature,SF,Adopted by IAU,276.2584438,277.029932,24.83309746,25.53121758,Russia,Europe,Russell,LAC-37,http://planetarynames.wr.usgs.gov/Feature/13325
Street R,Street R,1/1/2006,Thomas; British astronomer (1621-1689).,4.90408,345.3896236,-49.16293148,Satellite Feature,SF,Adopted by IAU,345.2659779,345.5132732,-49.24379349,-49.08206749,Great Britain,Europe,Clavius,LAC-126,http://planetarynames.wr.usgs.gov/Feature/13315
Street M,Street M,1/1/2006,Thomas; British astronomer (1621-1689).,48.1925,345.4229989,-47.8189826,Satellite Feature,SF,Adopted by IAU,344.2392521,346.6067486,-48.61362457,-47.02433968,Great Britain,Europe,Wilhelm,LAC-111,http://planetarynames.wr.usgs.gov/Feature/13312
Taruntius L,Taruntius L,1/1/2006,"Firmanus, Lucius; Roman philosopher (unkn-fl. 86 B.C.).",14.2648,44.52001486,5.456786141,Satellite Feature,SF,Adopted by IAU,44.2948513,44.74514961,5.262403488,5.651166916,Roman,Europe,Taruntius,LAC-61,http://planetarynames.wr.usgs.gov/Feature/13409
Wilhelm C,Wilhelm C,1/1/2006,"Wilhelm IV, Landgrave of Hesse; German astronomer (1532-1592).",15.494,340.3859949,-41.6038937,Satellite Feature,SF,Adopted by IAU,340.0443363,340.7276592,-41.85937309,-41.34841347,Germany,Europe,Wilhelm,LAC-111,http://planetarynames.wr.usgs.gov/Feature/13897
Tisserand K,Tisserand K,1/1/2006,Francois Felix; French astronomer (1845-1896).,12.9998,50.33129301,19.74304918,Satellite Feature,SF,Adopted by IAU,50.10355568,50.55903435,19.52869606,19.95740318,France,Europe,Cleomedes,LAC-44,http://planetarynames.wr.usgs.gov/Feature/13500
Vening Meinesz Q,Vening Meinesz Q,1/1/2006,"Felix Andries; Dutch geophysicist, geodesist (1887-1966).",16.2411,161.0291964,-2.51520474,Satellite Feature,SF,Adopted by IAU,160.761137,161.2972584,-2.783002853,-2.247406006,The Netherlands (Dutch),Europe,Keeler,LAC-85,http://planetarynames.wr.usgs.gov/Feature/13651
Titius J,Titius J,1/1/2006,Johann Daniel; German astronomer (1729-1796).,20.1969,101.5948672,-27.5154983,Satellite Feature,SF,Adopted by IAU,101.2193432,101.9703884,-27.84852409,-27.18247223,Germany,Europe,Hilbert,LAC-100,http://planetarynames.wr.usgs.gov/Feature/13501
Taruntius K,Taruntius K,1/1/2006,"Firmanus, Lucius; Roman philosopher (unkn-fl. 86 B.C.).",5.65418,51.57205191,0.645973558,Satellite Feature,SF,Adopted by IAU,51.47881508,51.66528893,0.552743912,0.739206314,Roman,Europe,Mare Undarum,LAC-62,http://planetarynames.wr.usgs.gov/Feature/13408
Taruntius O,Taruntius O,1/1/2006,"Firmanus, Lucius; Roman philosopher (unkn-fl. 86 B.C.).",5.99703,54.33113291,2.229880215,Satellite Feature,SF,Adopted by IAU,54.23217583,54.43008995,2.130994797,2.328767776,Roman,Europe,Mare Undarum,LAC-62,http://planetarynames.wr.usgs.gov/Feature/13410
Taruntius P,Taruntius P,1/1/2006,"Firmanus, Lucius; Roman philosopher (unkn-fl. 86 B.C.).",6.77586,51.58469853,0.060307553,Satellite Feature,SF,Adopted by IAU,51.47297096,51.69642448,-0.051418304,0.172037125,Roman,Europe,Mare Undarum,LAC-62,http://planetarynames.wr.usgs.gov/Feature/13411
Vening Meinesz C,Vening Meinesz C,1/1/2006,"Felix Andries; Dutch geophysicist, geodesist (1887-1966).",39.9917,163.8388929,1.17734843,Satellite Feature,SF,Adopted by IAU,163.1793346,164.4984531,0.51792717,1.836771011,The Netherlands (Dutch),Europe,Mandel'shtam,LAC-67,http://planetarynames.wr.usgs.gov/Feature/13650
Vening Meinesz W,Vening Meinesz W,1/1/2006,"Felix Andries; Dutch geophysicist, geodesist (1887-1966).",36.8662,161.0160947,1.401568118,Satellite Feature,SF,Adopted by IAU,160.4080296,161.6241627,0.793684006,2.009454727,The Netherlands (Dutch),Europe,Mandel'shtam,LAC-67,http://planetarynames.wr.usgs.gov/Feature/13653
Purbach F,Purbach F,1/1/2006,"Georg von; Austrian mathematician, astronomer (1423-1461).",8.88792,359.9698479,-24.59805562,Satellite Feature,SF,Adopted by IAU,359.80863,360.1300673,-24.74460793,-24.45150185,Austria,Europe,Purbach,LAC-95,http://planetarynames.wr.usgs.gov/Feature/12363
Purbach Q,Purbach Q,1/1/2006,"Georg von; Austrian mathematician, astronomer (1423-1461).",4.02015,359.9580248,-25.9232363,Satellite Feature,SF,Adopted by IAU,359.8843098,360.0307402,-25.98952293,-25.85694695,Austria,Europe,Purbach,LAC-95,http://planetarynames.wr.usgs.gov/Feature/12373
Regiomontanus K,Regiomontanus K,1/1/2006,"Muller, Johann; German astronomer, mathematician (1436-1476).",5.89767,359.9504877,-30.26185449,Satellite Feature,SF,Adopted by IAU,359.8378391,360.062139,-30.35910034,-30.164608,Germany,Europe,Purbach,LAC-95,http://planetarynames.wr.usgs.gov/Feature/12473
Stadius L,Stadius L,1/1/2006,"Stade, Jan; Belgian astronomer, mathematician (1527-1579).",2.87053,347.0434636,10.12252346,Satellite Feature,SF,Adopted by IAU,346.9953861,347.091547,10.07519341,10.16985512,Belgium,Europe,Copernicus,LAC-58,http://planetarynames.wr.usgs.gov/Feature/13201
Hainzel T,Hainzel T,1/1/2006,Paul; German astronomer (1527-1581).,12.1313,322.6762072,-40.19789597,Satellite Feature,SF,Adopted by IAU,322.5012836,322.8514614,-40.38948822,-40.00627518,Germany,Europe,Wilhelm,LAC-111,http://planetarynames.wr.usgs.gov/Feature/9680
Billy K,Billy K,1/1/2006,Jacques de; French mathematician (1602-1679).,4.20547,311.1429648,-12.96916112,Satellite Feature,SF,Adopted by IAU,311.071806,311.2141247,-13.03850365,-12.89981651,France,Europe,Letronne,LAC-75,http://planetarynames.wr.usgs.gov/Feature/7726
Blanchinus M,Blanchinus M,1/1/2006,"Bianchini, Giovanni; Italian astronomer (unkn-fl. 1458).",4.11423,2.577784566,-25.22020682,Satellite Feature,SF,Adopted by IAU,2.50279808,2.652772903,-25.28804588,-25.15236664,Italy,Europe,Purbach,LAC-95,http://planetarynames.wr.usgs.gov/Feature/7776
Birt E,Birt E,1/1/2006,William R.; British selenographer (1804-1881).,5.34166,350.3376837,-20.72211651,Satellite Feature,SF,Adopted by IAU,350.2685299,350.4068775,-20.79804802,-20.64617538,Great Britain,Europe,Purbach,LAC-95,http://planetarynames.wr.usgs.gov/Feature/7751
Blancanus G,Blancanus G,1/1/2006,"Biancani, Giuseppe; Italian mathematician, astronomer (1566-1624).",9.33171,334.8108645,-63.13400627,Satellite Feature,SF,Adopted by IAU,334.4704342,335.1513004,-63.28787613,-62.98013496,Italy,Europe,Schiller,LAC-125,http://planetarynames.wr.usgs.gov/Feature/7767
Hippalus A,Hippalus A,1/1/2006,Greek explorer (unkn-c. 120).,7.61749,327.1476189,-23.82037982,Satellite Feature,SF,Adopted by IAU,327.0103207,327.2849216,-23.94598389,-23.69477463,Greek,Europe,Mare Humorum,LAC-93,http://planetarynames.wr.usgs.gov/Feature/9978
Harpalus S,Harpalus S,1/1/2006,Greek astronomer (unkn-c. 460 B.C.).,4.42114,309.5989671,51.55130161,Satellite Feature,SF,Adopted by IAU,309.4817295,309.7162075,51.47840309,51.62420082,Greek,Europe,Pythagoras,LAC-10,http://planetarynames.wr.usgs.gov/Feature/9735
Harpalus T,Harpalus T,1/1/2006,Greek astronomer (unkn-c. 460 B.C.).,4.34838,310.4275566,50.12190951,Satellite Feature,SF,Adopted by IAU,310.3157215,310.5393963,50.05021095,50.19360924,Greek,Europe,J. Herschel,LAC-11,http://planetarynames.wr.usgs.gov/Feature/9736
Messier E,Messier E,1/1/2006,Charles; French astronomer (1730-1817).,5.01583,45.43106113,-3.347696302,Satellite Feature,SF,Adopted by IAU,45.3482151,45.51391029,-3.430400848,-3.264989853,France,Europe,Colombo,LAC-79,http://planetarynames.wr.usgs.gov/Feature/11388
Hevelius L,Hevelius L,1/1/2006,"Howelcke, Johann; Polish astronomer (1611-1687).",7.59749,289.522207,2.041248792,Satellite Feature,SF,Adopted by IAU,289.4116116,289.6328106,1.920038223,2.162462234,Poland,Europe,Vasco da Gama,LAC-55,http://planetarynames.wr.usgs.gov/Feature/9965
Hippalus B,Hippalus B,1/1/2006,Greek explorer (unkn-c. 120).,4.98141,329.6076299,-25.23196601,Satellite Feature,SF,Adopted by IAU,329.5168285,329.6984348,-25.31410408,-25.14982796,Greek,Europe,Mare Humorum,LAC-93,http://planetarynames.wr.usgs.gov/Feature/9979
Hippalus C,Hippalus C,1/1/2006,Greek explorer (unkn-c. 120).,3.3313,329.3612623,-24.143213,Satellite Feature,SF,Adopted by IAU,329.3010693,329.4214573,-24.19814301,-24.08828354,Greek,Europe,Mare Humorum,LAC-93,http://planetarynames.wr.usgs.gov/Feature/9980
Hyginus C,Hyginus C,1/1/2006,Caius Julius; Spanish astronomer (fl. first century B.C.).,4.1494,8.314643303,7.686588596,Satellite Feature,SF,Adopted by IAU,8.245603561,8.383684158,7.618169785,7.755010605,Spain,Europe,Mare Vaporum,LAC-59,http://planetarynames.wr.usgs.gov/Feature/10084
Hyginus D,Hyginus D,1/1/2006,Caius Julius; Spanish astronomer (fl. first century B.C.).,4.71462,4.329350646,11.4022448,Satellite Feature,SF,Adopted by IAU,4.250047684,4.408655167,11.32450676,11.47998619,Spain,Europe,Mare Vaporum,LAC-59,http://planetarynames.wr.usgs.gov/Feature/10085
Al-Khwarizmi M,Al Khwarizmi M,1/1/2006,Abū Ja'far Muhammad Ibn Mūsā; Iraqi mathematician (unkn-after 847).,16.4008,107.4401856,3.053159481,Satellite Feature,SF,Adopted by IAU,107.1693707,107.7110043,2.782728195,3.323591232,Iraq,Asia,Babcock,LAC-64,http://planetarynames.wr.usgs.gov/Feature/7136
Lippershey M,Lippershey M,1/1/2006,Hans (Jan Lapprey); Dutch optician (unkn-1619).,1.84367,349.102468,-24.27924667,Satellite Feature,SF,Adopted by IAU,349.0691204,349.1358204,-24.30964661,-24.24884605,The Netherlands (Dutch),Europe,Pitatus,LAC-94,http://planetarynames.wr.usgs.gov/Feature/10862
Suess J,Suess J,1/1/2006,Eduard; Austrian geologist (1831-1914).,3.31917,311.4688079,6.893674629,Satellite Feature,SF,Adopted by IAU,311.4136829,311.5239391,6.838945389,6.948404312,Austria,Europe,Kepler,LAC-57,http://planetarynames.wr.usgs.gov/Feature/13337
Marius K,Marius K,1/1/2006,"Mayer, Simon; German astronomer (1573-1624).",3.61139,309.3012696,9.399831611,Satellite Feature,SF,Adopted by IAU,309.2483883,309.3541584,9.341924667,9.457738876,Germany,Europe,Hevelius,LAC-56,http://planetarynames.wr.usgs.gov/Feature/11184
Marius U,Marius U,1/1/2006,"Mayer, Simon; German astronomer (1573-1624).",2.2964,312.3040045,9.560610109,Satellite Feature,SF,Adopted by IAU,312.2656078,312.3424053,9.522745132,9.598474503,Germany,Europe,Kepler,LAC-57,http://planetarynames.wr.usgs.gov/Feature/11192
Nöggerath P,Noggerath P,1/1/2006,"Johann Jakob; German geologist, mineralogist, seismologist (1788-1877).",9.9308,318.0568464,-47.69431736,Satellite Feature,SF,Adopted by IAU,317.81357,318.300127,-47.85806465,-47.53056908,Germany,Europe,Schickard,LAC-110,http://planetarynames.wr.usgs.gov/Feature/11661
Pontanus O,Pontanus O,1/1/2006,"Pontano, Giovanni Gioviani; Italian astronomer (1427-1503).",10.0875,14.09297106,-26.09576884,Satellite Feature,SF,Adopted by IAU,13.90775871,14.27818489,-26.26210022,-25.92943573,Italy,Europe,Rupes Altai,LAC-96,http://planetarynames.wr.usgs.gov/Feature/12255
Pontanus Q,Pontanus Q,1/1/2006,"Pontano, Giovanni Gioviani; Italian astronomer (1427-1503).",4.69756,14.39918066,-27.41012382,Satellite Feature,SF,Adopted by IAU,14.31192589,14.48643684,-27.48758125,-27.3326664,Italy,Europe,Rupes Altai,LAC-96,http://planetarynames.wr.usgs.gov/Feature/12257
Pontanus R,Pontanus R,1/1/2006,"Pontano, Giovanni Gioviani; Italian astronomer (1427-1503).",5.8561,15.60868328,-28.19723632,Satellite Feature,SF,Adopted by IAU,15.49912071,15.71824455,-28.29379654,-28.10067558,Italy,Europe,Rupes Altai,LAC-96,http://planetarynames.wr.usgs.gov/Feature/12258
Stöfler T,Stofler T,1/1/2006,"Johann; German astronomer, mathematician (1452-1531).",4.68245,8.104201334,-39.68907654,Satellite Feature,SF,Adopted by IAU,8.00387001,8.204534531,-39.76628494,-39.6118679,Germany,Europe,Tycho,LAC-112,http://planetarynames.wr.usgs.gov/Feature/13279
Römer Z,Romer Z,1/1/2006,Ole; Danish astronomer (1644-1710).,11.5953,37.04699357,24.12604429,Satellite Feature,SF,Adopted by IAU,36.83927345,37.25465965,23.9750042,24.27708244,Denmark,Europe,Macrobius,LAC-43,http://planetarynames.wr.usgs.gov/Feature/12672
Heraclitus A,Heraclitus A,1/1/2006,Greek philosopher (c. 540-480 B.C.).,4.96525,4.541557724,-49.41256183,Satellite Feature,SF,Adopted by IAU,4.415719986,4.667398453,-49.49443245,-49.33069038,Greek,Europe,Clavius,LAC-126,http://planetarynames.wr.usgs.gov/Feature/9884
Stevinus A,Stevinus A,1/1/2006,"Stevin, Simon; Belgian mathematician, physicist (1548-1620).",7.8653,51.64969987,-31.85703964,Satellite Feature,SF,Adopted by IAU,51.49951363,51.79987144,-31.97856903,-31.73551369,Belgium,Europe,Petavius,LAC-98,http://planetarynames.wr.usgs.gov/Feature/13239
Mason B,Mason B,1/1/2006,Charles; British astronomer (1730-1787).,9.80698,29.66059182,41.84152875,Satellite Feature,SF,Adopted by IAU,29.44352913,29.87765312,41.67982292,42.00323677,Great Britain,Europe,Eudoxus,LAC-26,http://planetarynames.wr.usgs.gov/Feature/11219
Mersenius L,Mersenius L,1/1/2006,"Mersenne, Marin; French mathematician, physicist (1588-1648).",3.71595,311.5919964,-19.93636331,Satellite Feature,SF,Adopted by IAU,311.5268192,311.6571751,-19.99763489,-19.87509155,France,Europe,Mare Humorum,LAC-93,http://planetarynames.wr.usgs.gov/Feature/11362
Hartmann K,Hartmann K,1/1/2006,Johannes Franz; German astronomer (1865-1936).,11.6487,136.1092978,1.408699756,Satellite Feature,SF,Adopted by IAU,135.9171658,136.3014317,1.216627121,1.600774765,Germany,Europe,Mendeleev,LAC-66,http://planetarynames.wr.usgs.gov/Feature/9741
Lansberg P,Lansberg P,1/1/2006,Philippe van; Belgian astronomer (1561-1632).,2.42747,336.9740933,-2.363094852,Satellite Feature,SF,Adopted by IAU,336.9340343,337.0141544,-2.403120041,-2.323068619,Belgium,Europe,Montes Riphaeus,LAC-76,http://planetarynames.wr.usgs.gov/Feature/10634
Lansberg X,Lansberg X,1/1/2006,Philippe van; Belgian astronomer (1561-1632).,2.99474,332.1294787,1.202739586,Satellite Feature,SF,Adopted by IAU,332.0800877,332.1788692,1.153360367,1.252119064,Belgium,Europe,Copernicus,LAC-58,http://planetarynames.wr.usgs.gov/Feature/10635
Lansberg Y,Lansberg Y,1/1/2006,Philippe van; Belgian astronomer (1561-1632).,3.55828,331.8120803,0.695082911,Satellite Feature,SF,Adopted by IAU,331.7534046,331.87076,0.636411667,0.753755569,Belgium,Europe,Copernicus,LAC-58,http://planetarynames.wr.usgs.gov/Feature/10636
Laplace A,Laplace A,1/1/2006,Named for Promontorium Laplace.,8.15887,333.0653469,43.74422216,Satellite Feature,SF,Adopted by IAU,332.8791294,333.2515659,43.60969353,43.87875557,France,Europe,Sinus Iridum,LAC-24,http://planetarynames.wr.usgs.gov/Feature/10637
Laplace B,Laplace B,1/1/2006,Named for Promontorium Laplace.,5.04428,340.1432729,51.34510784,Satellite Feature,SF,Adopted by IAU,340.0101147,340.2764339,51.26193428,51.4282856,France,Europe,Plato,LAC-12,http://planetarynames.wr.usgs.gov/Feature/10638
Gambart B,Gambart B,1/1/2006,Jean-Felix-Adolphe; French astronomer (1800-1836).,10.8333,348.4141422,2.161439978,Satellite Feature,SF,Adopted by IAU,348.2353878,348.5929012,1.982809067,2.340070724,France,Europe,Copernicus,LAC-58,http://planetarynames.wr.usgs.gov/Feature/9318
Al-Khwarizmi T,Al Khwarizmi T,1/1/2006,Abū Ja'far Muhammad Ibn Mūsā; Iraqi mathematician (unkn-after 847).,14.0541,104.9646689,7.060655767,Satellite Feature,SF,Adopted by IAU,104.7311687,105.1981716,6.828920364,7.292394638,Iraq,Asia,Babcock,LAC-64,http://planetarynames.wr.usgs.gov/Feature/7137
Gambart C,Gambart C,1/1/2006,Jean-Felix-Adolphe; French astronomer (1800-1836).,11.6684,348.1777075,3.324747298,Satellite Feature,SF,Adopted by IAU,347.9849873,348.3704319,3.132349014,3.517148972,France,Europe,Copernicus,LAC-58,http://planetarynames.wr.usgs.gov/Feature/9319
Gassendi N,Gassendi N,1/1/2006,"Pierre; French astronomer, mathematician (1592-1655).",3.74003,320.680985,-18.0689124,Satellite Feature,SF,Adopted by IAU,320.6161175,320.7458553,-18.1305809,-18.0072422,France,Europe,Mare Humorum,LAC-93,http://planetarynames.wr.usgs.gov/Feature/9362
Bečvář S,Becvar S,1/1/2006,Antonin; Czechoslovakian astronomer (1901-1965).,15.5767,121.404193,-3.301596172,Satellite Feature,SF,Adopted by IAU,121.146925,121.6614628,-3.558439255,-3.044752121,Czechoslovakia,Europe,Langemak,LAC-83,http://planetarynames.wr.usgs.gov/Feature/7622
Dziewulski Q,Dziewulski Q,1/1/2006,Wladyslaw; Polish astronomer (1878-1962).,28.2274,98.45633712,20.54638014,Satellite Feature,SF,Adopted by IAU,97.95928001,98.95339394,20.08094215,21.01181984,Poland,Europe,Joliot,LAC-46,http://planetarynames.wr.usgs.gov/Feature/8876
Green Q,Green Q,1/1/2006,George; British mathematician (1793-1841).,14.7592,131.8487253,2.316340104,Satellite Feature,SF,Adopted by IAU,131.6051617,132.0922909,2.072977066,2.559705734,Great Britain,Europe,Mendeleev,LAC-66,http://planetarynames.wr.usgs.gov/Feature/9551
Gruithuisen F,Gruithuisen F,1/1/2006,Franz von; German astronomer (1774-1852).,4.18635,322.0178534,36.27114772,Satellite Feature,SF,Adopted by IAU,321.9322338,322.1034756,36.20211983,36.34017754,Germany,Europe,Sinus Iridum,LAC-24,http://planetarynames.wr.usgs.gov/Feature/9586
Gruithuisen G,Gruithuisen G,1/1/2006,Franz von; German astronomer (1774-1852).,6.01056,315.9851552,36.59060645,Satellite Feature,SF,Adopted by IAU,315.8629208,316.1074123,36.51101112,36.67020607,Germany,Europe,Rümker,LAC-23,http://planetarynames.wr.usgs.gov/Feature/9587
Gruithuisen P,Gruithuisen P,1/1/2006,Franz von; German astronomer (1774-1852).,9.13379,319.4313363,37.17057082,Satellite Feature,SF,Adopted by IAU,319.2856007,319.5769062,37.02787971,37.31331825,Germany,Europe,Rümker,LAC-23,http://planetarynames.wr.usgs.gov/Feature/9591
Einthoven P,Einthoven P,1/1/2006,Willem; Dutch physiologist; Nobel laureate (1860-1927).,18.4851,108.8073894,-7.072109019,Satellite Feature,SF,Adopted by IAU,108.5002499,109.1145306,-7.376907349,-6.767309189,The Netherlands (Dutch),Europe,Pasteur,LAC-82,http://planetarynames.wr.usgs.gov/Feature/8914
Auzout D,Auzout D,1/1/2006,"Adrien; French astronomer, physicist (1622-1691).",11.6588,62.42779573,9.348988451,Satellite Feature,SF,Adopted by IAU,62.23295784,62.6226368,9.156747818,9.541231155,France,Europe,Mare Undarum,LAC-62,http://planetarynames.wr.usgs.gov/Feature/7429
Einthoven R,Einthoven R,1/1/2006,Willem; Dutch physiologist; Nobel laureate (1860-1927).,13.3732,107.4281792,-6.047703293,Satellite Feature,SF,Adopted by IAU,107.2064381,107.6499233,-6.268213272,-5.827192307,The Netherlands (Dutch),Europe,Pasteur,LAC-82,http://planetarynames.wr.usgs.gov/Feature/8915
Arago C,Arago C,1/1/2006,Dominique Francois Jean; French astronomer (1786-1853).,3.03421,21.47747184,3.887945482,Satellite Feature,SF,Adopted by IAU,21.42732811,21.52762032,3.837915421,3.937978745,France,Europe,Julius Caesar,LAC-60,http://planetarynames.wr.usgs.gov/Feature/7324
Abulfeda BA,Abulfeda BA,1/1/2006,Ismail Ibn Abū al-Fidā; Syrian geographer (1273-1331).,13.9878,16.79585196,-14.69172487,Satellite Feature,SF,Adopted by IAU,16.5616436,17.0301075,-14.89694214,-14.48650551,Syria,Asia,Theophilus,LAC-78,http://planetarynames.wr.usgs.gov/Feature/7053
Heaviside F,Heaviside F,1/1/2006,"Oliver; British mathematician, physicist (1850-1925).",13.4491,172.6103339,-10.78725436,Satellite Feature,SF,Adopted by IAU,172.3845921,172.8360767,-11.00901604,-10.56549263,Great Britain,Europe,Icarus,LAC-86,http://planetarynames.wr.usgs.gov/Feature/9775
Bailly N,Bailly N,1/1/2006,Jean Sylvain; French astronomer (1736-1793).,10.9634,296.3196912,-60.52714794,Satellite Feature,SF,Adopted by IAU,295.9522762,296.687109,-60.70792198,-60.3463726,France,Europe,Phocylides,LAC-124,http://planetarynames.wr.usgs.gov/Feature/7502
Maskelyne X,Maskelyne X,1/1/2006,Nevil; British astronomer (1732-1811).,3.70831,27.3872914,1.269037458,Satellite Feature,SF,Adopted by IAU,27.32613182,27.4484539,1.207891464,1.330183029,Great Britain,Europe,Julius Caesar,LAC-60,http://planetarynames.wr.usgs.gov/Feature/11216
Apianus S,Apianus S,1/1/2006,"Bienewitz, Peter; German mathematician, astronomer (1495-1552).",23.9561,8.47400556,-25.80821823,Satellite Feature,SF,Adopted by IAU,8.29847908,8.654088974,-26.05052757,-25.55477905,Germany,Europe,Purbach,LAC-95,http://planetarynames.wr.usgs.gov/Feature/7299
Heron (Hero) H,Heron  Hero  H,1/1/2006,Egyptian inventor (unkn-c. 100 B.C.).,17.8819,120.7012191,0.240354422,Satellite Feature,SF,Adopted by IAU,120.4063625,120.9960766,-0.054498672,0.535207748,Egypt,Africa,Ostwald,LAC-65,http://planetarynames.wr.usgs.gov/Feature/9928
Schuster P,Schuster P,1/1/2006,"Sir Arthur; British mathematician, physicist (1851-1934).",16.2508,144.4857321,1.679477915,Satellite Feature,SF,Adopted by IAU,144.2176609,144.7538052,1.411520004,1.947435379,Great Britain,Europe,Mendeleev,LAC-66,http://planetarynames.wr.usgs.gov/Feature/12989
Epimenides B,Epimenides B,1/1/2006,"Greek philosopher, writer (unkn-fl. 596 B.C.).",10.2175,331.070252,-41.61844629,Satellite Feature,SF,Adopted by IAU,330.8448925,331.2956142,-41.78692055,-41.44997025,Greek,Europe,Wilhelm,LAC-111,http://planetarynames.wr.usgs.gov/Feature/8976
Gagarin M,Gagarin M,1/1/2006,Yury Alekseyevich; Soviet cosmonaut (1934-1968).,17.5825,149.172228,-23.50507728,Satellite Feature,SF,Adopted by IAU,148.856081,149.4883785,-23.79499435,-23.21516037,Soviet,Europe,Gagarin,LAC-102,http://planetarynames.wr.usgs.gov/Feature/9284
Avogadro D,Avogadro D,1/1/2006,Amedeo (Conte Di Quarengna); Italian physicist (1776-1856).,19.4736,170.2239224,63.84360541,Satellite Feature,SF,Adopted by IAU,169.4955235,170.9523258,63.52250481,64.16470528,Italy,Europe,D'Alembert,LAC-18,http://planetarynames.wr.usgs.gov/Feature/7438
Atlas A,Atlas A,1/1/2006,Mythological Greek Titan.,22.2188,49.55782212,45.34072526,Satellite Feature,SF,Adopted by IAU,49.03660393,50.07904243,44.97436333,45.70709038,Greek,Europe,Geminus,LAC-27,http://planetarynames.wr.usgs.gov/Feature/7417
Alfraganus E,Alfraganus E,1/1/2006,"Al-Fargani, Abu'l-'Abbās Ahmad Ibn Muhammad Ibn Kathīr; Persian astronomer (unkn-c. 840).",3.8494,19.00470068,-4.616540994,Satellite Feature,SF,Adopted by IAU,18.94102287,19.06838036,-4.680013657,-4.553068161,Persian,Asia,Theophilus,LAC-78,http://planetarynames.wr.usgs.gov/Feature/7167
Baillaud B,Baillaud B,1/1/2006,(Édouard) Benjamin; French astronomer (1848-1934).,18.081,32.91066561,72.93177631,Satellite Feature,SF,Adopted by IAU,31.8946476,33.92668724,72.63363838,73.22991371,France,Europe,Meton,LAC-4,http://planetarynames.wr.usgs.gov/Feature/7486
Anděl K,Andel K,1/1/2006,Karel; Czechoslovakian astronomer (1884-1948).,3.69052,11.56136585,-5.831514513,Satellite Feature,SF,Adopted by IAU,11.50019646,11.62253761,-5.892366409,-5.7706604,Czechoslovakia,Europe,Theophilus,LAC-78,http://planetarynames.wr.usgs.gov/Feature/7259
Anděl P,Andel P,1/1/2006,Karel; Czechoslovakian astronomer (1884-1948).,17.5596,12.2021772,-11.65201638,Satellite Feature,SF,Adopted by IAU,11.90654564,12.49780846,-11.94155502,-11.36247635,Czechoslovakia,Europe,Theophilus,LAC-78,http://planetarynames.wr.usgs.gov/Feature/7262
Alhazen A,Alhazen A,1/1/2006,Abū Ali Al-Hasan Ibn Al Haitham; Iraqi mathematician (987-1038).,16.1381,74.30357246,16.16720464,Satellite Feature,SF,Adopted by IAU,74.02651787,74.58062935,15.90110588,16.43330574,Iraq,Asia,Hubble,LAC-45,http://planetarynames.wr.usgs.gov/Feature/7173
Jansky H,Jansky H,1/1/2006,Karl Guthe; American radio engineer (1905-1950).,11.8372,91.40543783,7.707096356,Satellite Feature,SF,Adopted by IAU,91.21146202,91.6053791,7.510412216,7.900777817,American,North America,Babcock,LAC-64,http://planetarynames.wr.usgs.gov/Feature/10203
Abulfeda Q,Abulfeda Q,1/1/2006,Ismail Ibn Abū al-Fidā; Syrian geographer (1273-1331).,3.50601,12.22395389,-12.85920445,Satellite Feature,SF,Adopted by IAU,12.16465569,12.28325462,-12.91701508,-12.80139351,Syria,Asia,Theophilus,LAC-78,http://planetarynames.wr.usgs.gov/Feature/7067
Agatharchides S,Agatharchides S,1/1/2006,Agatharchides of Cnidos; Greek geographer (c. 116 B.C.).,3.05635,329.4111368,-17.75271787,Satellite Feature,SF,Adopted by IAU,329.3582172,329.464056,-17.80311394,-17.70232201,Greek,Europe,Mare Humorum,LAC-93,http://planetarynames.wr.usgs.gov/Feature/7095
Airy J,Airy J,1/1/2006,George Biddell; British astronomer (1801-1892).,3.92596,6.084953337,-19.05238182,Satellite Feature,SF,Adopted by IAU,6.016462326,6.153448105,-19.11711693,-18.9876461,Great Britain,Europe,Purbach,LAC-95,http://planetarynames.wr.usgs.gov/Feature/7112
Agatharchides R,Agatharchides R,1/1/2006,Agatharchides of Cnidos; Greek geographer (c. 116 B.C.).,5.11406,329.1545593,-18.36012412,Satellite Feature,SF,Adopted by IAU,329.0657139,329.2434101,-18.44444847,-18.2757988,Greek,Europe,Mare Humorum,LAC-93,http://planetarynames.wr.usgs.gov/Feature/7094
Heron (Hero) Y,Heron  Hero  Y,1/1/2006,Egyptian inventor (unkn-c. 100 B.C.).,15.1896,119.6886379,1.42173717,Satellite Feature,SF,Adopted by IAU,119.4381008,119.9391766,1.171278,1.672197342,Egypt,Africa,Ostwald,LAC-65,http://planetarynames.wr.usgs.gov/Feature/9929
Lohrmann B,Lohrmann B,1/1/2006,Wilhelm Gotthelf; German selenographer (1796-1840).,13.5732,290.4611798,-0.751029122,Satellite Feature,SF,Adopted by IAU,290.2373562,290.6850071,-0.974836349,-0.52722168,Germany,Europe,Grimaldi,LAC-74,http://planetarynames.wr.usgs.gov/Feature/10900
Abulfeda H,Abulfeda H,1/1/2006,Ismail Ibn Abū al-Fidā; Syrian geographer (1273-1331).,4.22246,9.557078017,-13.83511562,Satellite Feature,SF,Adopted by IAU,9.485372543,9.628786087,-13.90473938,-13.76549149,Syria,Asia,Ptolemaeus,LAC-77,http://planetarynames.wr.usgs.gov/Feature/7059
Apianus A,Apianus A,1/1/2006,"Bienewitz, Peter; German mathematician, astronomer (1495-1552).",13.1132,6.516992189,-25.69958261,Satellite Feature,SF,Adopted by IAU,6.277021408,6.756967545,-25.91580391,-25.48336029,Germany,Europe,Purbach,LAC-95,http://planetarynames.wr.usgs.gov/Feature/7284
Apollonius J,Apollonius J,1/1/2006,Apollonius of Perga; Greek mathematician (c. 262-190 B.C.).,11.6994,57.48424956,4.627298748,Satellite Feature,SF,Adopted by IAU,57.29070473,57.6777935,4.434389114,4.820211411,Greek,Europe,Mare Undarum,LAC-62,http://planetarynames.wr.usgs.gov/Feature/7310
Fauth H,Fauth H,1/1/2006,Philipp Johann Heinrich; German selenographer (1867-1941).,3.75754,343.7774592,4.782566604,Satellite Feature,SF,Adopted by IAU,343.7152882,343.839632,4.720609665,4.844526291,Germany,Europe,Copernicus,LAC-58,http://planetarynames.wr.usgs.gov/Feature/9049
Gambart S,Gambart S,1/1/2006,Jean-Felix-Adolphe; French astronomer (1800-1836).,2.39943,346.759958,-0.05456943,Satellite Feature,SF,Adopted by IAU,346.720396,346.7995243,-0.094133377,-0.015005112,France,Europe,Montes Riphaeus,LAC-76,http://planetarynames.wr.usgs.gov/Feature/9331
Abulfeda J,Abulfeda J,1/1/2006,Ismail Ibn Abū al-Fidā; Syrian geographer (1273-1331).,4.06904,10.03269883,-15.48616838,Satellite Feature,SF,Adopted by IAU,9.963071823,10.10232735,-15.55326271,-15.4190731,Syria,Asia,Theophilus,LAC-78,http://planetarynames.wr.usgs.gov/Feature/7060
Amici T,Amici T,1/1/2006,"Giovanni Battista; Italian astronomer, optician (1786-1863).",38.0635,185.9251933,-9.914245114,Satellite Feature,SF,Adopted by IAU,185.2880535,186.5623341,-10.54187202,-9.286617279,Italy,Europe,Icarus,LAC-86,http://planetarynames.wr.usgs.gov/Feature/7233
Flamsteed T,Flamsteed T,1/1/2006,John; British astronomer (1646-1719).,23.0955,308.2761038,-3.139997776,Satellite Feature,SF,Adopted by IAU,307.8947124,308.6574993,-3.52081871,-2.759176254,Great Britain,Europe,Grimaldi,LAC-74,http://planetarynames.wr.usgs.gov/Feature/9121
Stratton Q,Stratton Q,1/1/2006,"Frederick John Marrion; British astronomer, astrophysicist (1881-1960).",12.6397,163.9056621,-6.205006804,Satellite Feature,SF,Adopted by IAU,163.6960201,164.1153049,-6.413421631,-5.996591568,Great Britain,Europe,Keeler,LAC-85,http://planetarynames.wr.usgs.gov/Feature/13298
Brenner E,Brenner E,1/1/2006,Leo (Spiridon Gopcevic); Austrian astronomer (1855-1928).,14.2611,40.50735399,-38.96760827,Satellite Feature,SF,Adopted by IAU,40.20490456,40.80980492,-39.20275879,-38.73245621,Austria,Europe,Rheita,LAC-114,http://planetarynames.wr.usgs.gov/Feature/7932
Boss F,Boss F,1/1/2006,Lewis; American astronomer (1846-1912).,30.492,89.08862462,54.17476187,Satellite Feature,SF,Adopted by IAU,88.22963524,89.94761467,53.6719799,54.67754555,American,North America,Belkovich,LAC-15,http://planetarynames.wr.usgs.gov/Feature/7870
Alfraganus F,Alfraganus F,1/1/2006,"Al-Fargani, Abu'l-'Abbās Ahmad Ibn Muhammad Ibn Kathīr; Persian astronomer (unkn-c. 840).",8.64237,20.84166701,-3.536382252,Satellite Feature,SF,Adopted by IAU,20.69889259,20.98444557,-3.678886414,-3.393878937,Persian,Asia,Theophilus,LAC-78,http://planetarynames.wr.usgs.gov/Feature/7168
Barocius K,Barocius K,1/1/2006,Francesco; Italian mathematician (1537-1604).,13.5572,19.62899756,-45.22217302,Satellite Feature,SF,Adopted by IAU,19.31162834,19.94636726,-45.44571686,-44.99862862,Italy,Europe,Maurolycus,LAC-113,http://planetarynames.wr.usgs.gov/Feature/7554
Albategnius J,Albategnius J,1/1/2006,"Muhammed Ben Geber Al-Battānī; Arab astronomer, mathematician (c. 858-929).",5.96768,6.191638233,-11.14098081,Satellite Feature,SF,Adopted by IAU,6.091344833,6.29193306,-11.23938179,-11.04257965,Iraq,Asia,Ptolemaeus,LAC-77,http://planetarynames.wr.usgs.gov/Feature/7145
Agrippa F,Agrippa F,1/1/2006,Greek astronomer (unkn-fl. A.D. 92).,5.346,11.36974464,4.30121249,Satellite Feature,SF,Adopted by IAU,11.28135109,11.45813942,4.213064194,4.389364243,Greek,Europe,Julius Caesar,LAC-60,http://planetarynames.wr.usgs.gov/Feature/7100
Ariadaeus D,Ariadaeus D,1/1/2006,Philip III of Macedonia; chronologer (c. 358-317 B.C.).,3.91578,17.02524239,4.876821869,Satellite Feature,SF,Adopted by IAU,16.9604435,17.09004402,4.812253952,4.941389084,Babylon,Asia,Julius Caesar,LAC-60,http://planetarynames.wr.usgs.gov/Feature/7364
Archimedes Y,Archimedes Y,1/1/2006,"Greek physicist, mathematician (c. 287-212 B.C.).",2.20124,350.5026112,29.9709431,Satellite Feature,SF,Adopted by IAU,350.4607143,350.544508,29.93464851,30.00723839,Greek,Europe,Montes Apenninus,LAC-41,http://planetarynames.wr.usgs.gov/Feature/7348
Ball F,Ball F,1/1/2006,William; British astronomer (unkn-1690).,11.3781,351.5106261,-36.94587184,Satellite Feature,SF,Adopted by IAU,351.2759228,351.7453327,-37.13348389,-36.75825882,Great Britain,Europe,Tycho,LAC-112,http://planetarynames.wr.usgs.gov/Feature/7524
Amici R,Amici R,1/1/2006,"Giovanni Battista; Italian astronomer, optician (1786-1863).",34.7682,184.6784511,-11.50410015,Satellite Feature,SF,Adopted by IAU,184.0934086,185.2634983,-12.07739067,-10.93080902,Italy,Europe,Icarus,LAC-86,http://planetarynames.wr.usgs.gov/Feature/7232
Brenner F,Brenner F,1/1/2006,Leo (Spiridon Gopcevic); Austrian astronomer (1855-1928).,13.7184,37.03187786,-40.71762194,Satellite Feature,SF,Adopted by IAU,36.73342705,37.3303318,-40.94382286,-40.49142075,Austria,Europe,Rheita,LAC-114,http://planetarynames.wr.usgs.gov/Feature/7933
Aitken G,Aitken G,1/1/2006,Robert Grant; American astronomer (1864-1951).,6.04762,173.9942008,-16.70981984,Satellite Feature,SF,Adopted by IAU,173.8900814,174.0983219,-16.80953789,-16.61009979,American,North America,Van de Graaff,LAC-104,http://planetarynames.wr.usgs.gov/Feature/7125
Aitken N,Aitken N,1/1/2006,Robert Grant; American astronomer (1864-1951).,7.14643,172.7386142,-17.63110702,Satellite Feature,SF,Adopted by IAU,172.6149693,172.8622608,-17.74894333,-17.51326942,American,North America,Van de Graaff,LAC-104,http://planetarynames.wr.usgs.gov/Feature/7126
Alfraganus G,Alfraganus G,1/1/2006,"Al-Fargani, Abu'l-'Abbās Ahmad Ibn Muhammad Ibn Kathīr; Persian astronomer (unkn-c. 840).",5.73791,21.23249943,-2.672072955,Satellite Feature,SF,Adopted by IAU,21.13778496,21.32721519,-2.766685486,-2.577461243,Persian,Asia,Theophilus,LAC-78,http://planetarynames.wr.usgs.gov/Feature/7169
Abenezra D,Abenezra D,1/1/2006,"Abraham ben Meir Ibn Ezra; Spanish mathematician, astronomer (1092-1164/1167).",7.25231,9.648878468,-21.75868063,Satellite Feature,SF,Adopted by IAU,9.520105362,9.777650833,-21.87826347,-21.63909721,Spain,Europe,Purbach,LAC-95,http://planetarynames.wr.usgs.gov/Feature/7042
Alfraganus K,Alfraganus K,1/1/2006,"Al-Fargani, Abu'l-'Abbās Ahmad Ibn Muhammad Ibn Kathīr; Persian astronomer (unkn-c. 840).",2.9455,19.53734254,-5.253905636,Satellite Feature,SF,Adopted by IAU,19.48856926,19.5861187,-5.302473068,-5.205337524,Persian,Asia,Theophilus,LAC-78,http://planetarynames.wr.usgs.gov/Feature/7171
Hume Z,Hume Z,1/1/2006,David; Scottish philosopher (1711-1776).,14.2152,90.41596573,-3.608525824,Satellite Feature,SF,Adopted by IAU,90.18110466,90.65082741,-3.842918396,-3.374132156,Scotland,Europe,Pasteur,LAC-82,http://planetarynames.wr.usgs.gov/Feature/10078
Almanon R,Almanon R,1/1/2006,Abdalla Al Mamun; Persian astronomer (786-833).,3.51256,15.88077464,-18.174728,Satellite Feature,SF,Adopted by IAU,15.81980705,15.94174385,-18.23264503,-18.11680984,Persian,Asia,Rupes Altai,LAC-96,http://planetarynames.wr.usgs.gov/Feature/7200
Albategnius P,Albategnius P,1/1/2006,"Muhammed Ben Geber Al-Battānī; Arab astronomer, mathematician (c. 858-929).",4.01048,4.486912966,-13.01613768,Satellite Feature,SF,Adopted by IAU,4.419038773,4.554788589,-13.08226585,-12.95000839,Iraq,Asia,Ptolemaeus,LAC-77,http://planetarynames.wr.usgs.gov/Feature/7151
Fourier G,Fourier G,1/1/2006,Jean-Baptiste Joseph; French mathematician (1768-1830).,10.4892,308.1598907,-29.39724886,Satellite Feature,SF,Adopted by IAU,307.9613705,308.3584118,-29.57020378,-29.22429276,France,Europe,Byrgius,LAC-92,http://planetarynames.wr.usgs.gov/Feature/9168
Alfraganus H,Alfraganus H,1/1/2006,"Al-Fargani, Abu'l-'Abbās Ahmad Ibn Muhammad Ibn Kathīr; Persian astronomer (unkn-c. 840).",11.9985,19.16005517,-4.363765284,Satellite Feature,SF,Adopted by IAU,18.9616375,19.35847282,-4.561607361,-4.165922165,Persian,Asia,Theophilus,LAC-78,http://planetarynames.wr.usgs.gov/Feature/7170
Fra Mauro J,Fra Mauro J,1/1/2006,Italian geographer (unkn-1459).,3.2788,341.3520228,-2.617089496,Satellite Feature,SF,Adopted by IAU,341.2979031,341.4061451,-2.671152115,-2.563024521,Italy,Europe,Montes Riphaeus,LAC-76,http://planetarynames.wr.usgs.gov/Feature/9189
Anděl C,Andel C,1/1/2006,Karel; Czechoslovakian astronomer (1884-1948).,3.0114,11.15259098,-9.009529797,Satellite Feature,SF,Adopted by IAU,11.1023159,11.20287132,-9.059185028,-8.959875107,Czechoslovakia,Europe,Theophilus,LAC-78,http://planetarynames.wr.usgs.gov/Feature/7252
Agatharchides F,Agatharchides F,1/1/2006,Agatharchides of Cnidos; Greek geographer (c. 116 B.C.).,5.89164,328.1426453,-20.25759997,Satellite Feature,SF,Adopted by IAU,328.0390911,328.2462025,-20.35474586,-20.16045189,Greek,Europe,Mare Humorum,LAC-93,http://planetarynames.wr.usgs.gov/Feature/7085
Abenezra G,Abenezra G,1/1/2006,"Abraham ben Meir Ibn Ezra; Spanish mathematician, astronomer (1092-1164/1167).",4.92428,11.001643,-20.53265365,Satellite Feature,SF,Adopted by IAU,10.91492653,11.08836174,-20.61384964,-20.45145607,Spain,Europe,Rupes Altai,LAC-96,http://planetarynames.wr.usgs.gov/Feature/7045
Abenezra J,Abenezra J,1/1/2006,"Abraham ben Meir Ibn Ezra; Spanish mathematician, astronomer (1092-1164/1167).",4.25785,10.6862963,-19.9173392,Satellite Feature,SF,Adopted by IAU,10.61161613,10.76098061,-19.98754692,-19.84713173,Spain,Europe,Rupes Altai,LAC-96,http://planetarynames.wr.usgs.gov/Feature/7047
Maunder A,Maunder A,1/1/2006,Annie Scott Dill Russell; British astronomer (1868-1947); Edward Walter; British astronomer (1851-1928).,15.4847,269.3791421,-3.28461198,Satellite Feature,SF,Adopted by IAU,269.1233959,269.6348896,-3.539937973,-3.029285431,Great Britain,Europe,Lowell,LAC-90,http://planetarynames.wr.usgs.gov/Feature/11221
Abbe H,Abbe H,1/1/2006,"Ernst Karl; German optician, physicist, astronomer (1840-1905).",25.1268,177.5841326,-58.44493355,Satellite Feature,SF,Adopted by IAU,176.7927227,178.3755589,-58.8592453,-58.03062057,Germany,Europe,Hess,LAC-132,http://planetarynames.wr.usgs.gov/Feature/7027
Abbe K,Abbe K,1/1/2006,"Ernst Karl; German optician, physicist, astronomer (1840-1905).",26.1044,176.8578807,-59.81585574,Satellite Feature,SF,Adopted by IAU,176.0017681,177.7140026,-60.24629211,-59.38541985,Germany,Europe,Hess,LAC-132,http://planetarynames.wr.usgs.gov/Feature/7028
Abbe M,Abbe M,1/1/2006,"Ernst Karl; German optician, physicist, astronomer (1840-1905).",28.6143,175.2393689,-61.7461931,Satellite Feature,SF,Adopted by IAU,174.2421703,176.2365665,-62.21801376,-61.2743721,Germany,Europe,Hess,LAC-132,http://planetarynames.wr.usgs.gov/Feature/7029
Abel A,Abel A,1/1/2006,Niels Henrik; Norwegian mathematician (1802-1829).,27.8334,85.7973049,-36.31411342,Satellite Feature,SF,Adopted by IAU,85.2279911,86.36728477,-36.7743988,-35.85650253,Norway,Europe,Mare Australe,LAC-116,http://planetarynames.wr.usgs.gov/Feature/7030
Abel B,Abel B,1/1/2006,Niels Henrik; Norwegian mathematician (1802-1829).,41.5459,82.59542391,-36.72023874,Satellite Feature,SF,Adopted by IAU,81.74163246,83.44925117,-37.40528679,-36.03519058,Norway,Europe,Mare Australe,LAC-116,http://planetarynames.wr.usgs.gov/Feature/7031
Abel C,Abel C,1/1/2006,Niels Henrik; Norwegian mathematician (1802-1829).,36.8427,81.40938546,-36.12732007,Satellite Feature,SF,Adopted by IAU,80.65726662,82.16147804,-36.73482323,-35.51981544,Norway,Europe,Furnerius,LAC-115,http://planetarynames.wr.usgs.gov/Feature/7032
Abel D,Abel D,1/1/2006,Niels Henrik; Norwegian mathematician (1802-1829).,27.8972,86.4543292,-37.6716364,Satellite Feature,SF,Adopted by IAU,85.87318993,87.03547096,-38.13163567,-37.2116375,Norway,Europe,Mare Australe,LAC-116,http://planetarynames.wr.usgs.gov/Feature/7033
Abel E,Abel E,1/1/2006,Niels Henrik; Norwegian mathematician (1802-1829).,13.998,84.43541076,-37.53544344,Satellite Feature,SF,Adopted by IAU,84.14402199,84.72627449,-37.76658058,-37.30495453,Norway,Europe,Mare Australe,LAC-116,http://planetarynames.wr.usgs.gov/Feature/7034
Abel J,Abel J,1/1/2006,Niels Henrik; Norwegian mathematician (1802-1829).,18.7579,79.87135008,-36.20272653,Satellite Feature,SF,Adopted by IAU,79.4870472,80.25413704,-36.51235008,-35.89375114,Norway,Europe,Furnerius,LAC-115,http://planetarynames.wr.usgs.gov/Feature/7035
Abel K,Abel K,1/1/2006,Niels Henrik; Norwegian mathematician (1802-1829).,9.94431,77.4576348,-34.69154537,Satellite Feature,SF,Adopted by IAU,77.25819206,77.6570797,-34.85551643,-34.52757454,Norway,Europe,Furnerius,LAC-115,http://planetarynames.wr.usgs.gov/Feature/7036
Abel L,Abel L,1/1/2006,Niels Henrik; Norwegian mathematician (1802-1829).,54.1297,82.39459148,-34.55253621,Satellite Feature,SF,Adopted by IAU,81.31719398,83.48349953,-35.44781876,-33.66269684,Norway,Europe,Mare Australe,LAC-116,http://planetarynames.wr.usgs.gov/Feature/7037
Abenezra A,Abenezra A,1/1/2006,"Abraham ben Meir Ibn Ezra; Spanish mathematician, astronomer (1092-1164/1167).",22.1887,10.44227748,-22.79153789,Satellite Feature,SF,Adopted by IAU,10.04530144,10.83925438,-23.15740585,-22.42566872,Spain,Europe,Rupes Altai,LAC-96,http://planetarynames.wr.usgs.gov/Feature/7039
Abel M,Abel M,1/1/2006,Niels Henrik; Norwegian mathematician (1802-1829).,91.0059,83.52179312,-32.37631734,Satellite Feature,SF,Adopted by IAU,81.74468422,85.29890251,-33.87690735,-30.87572479,Norway,Europe,Mare Australe,LAC-116,http://planetarynames.wr.usgs.gov/Feature/7038
Alfraganus M,Alfraganus M,1/1/2006,"Al-Fargani, Abu'l-'Abbās Ahmad Ibn Muhammad Ibn Kathīr; Persian astronomer (unkn-c. 840).",3.15668,19.56430556,-5.657122524,Satellite Feature,SF,Adopted by IAU,19.51199913,19.61661339,-5.709173203,-5.605072021,Persian,Asia,Theophilus,LAC-78,http://planetarynames.wr.usgs.gov/Feature/7172
Abenezra B,Abenezra B,1/1/2006,"Abraham ben Meir Ibn Ezra; Spanish mathematician, astronomer (1092-1164/1167).",13.7665,10.06246655,-20.81777675,Satellite Feature,SF,Adopted by IAU,9.819581985,10.30534935,-21.04477119,-20.59078026,Spain,Europe,Rupes Altai,LAC-96,http://planetarynames.wr.usgs.gov/Feature/7040
Abenezra C,Abenezra C,1/1/2006,"Abraham ben Meir Ibn Ezra; Spanish mathematician, astronomer (1092-1164/1167).",43.6924,11.09060569,-21.36664196,Satellite Feature,SF,Adopted by IAU,10.31690407,11.86432076,-22.08709145,-20.64619255,Spain,Europe,Rupes Altai,LAC-96,http://planetarynames.wr.usgs.gov/Feature/7041
Abenezra E,Abenezra E,1/1/2006,"Abraham ben Meir Ibn Ezra; Spanish mathematician, astronomer (1092-1164/1167).",14.1057,9.404442779,-21.46364198,Satellite Feature,SF,Adopted by IAU,9.154523849,9.654363632,-21.69622993,-21.2310524,Spain,Europe,Purbach,LAC-95,http://planetarynames.wr.usgs.gov/Feature/7043
Abenezra F,Abenezra F,1/1/2006,"Abraham ben Meir Ibn Ezra; Spanish mathematician, astronomer (1092-1164/1167).",6.30466,10.3364725,-21.5800415,Satellite Feature,SF,Adopted by IAU,10.2246685,10.44827843,-21.68399811,-21.47608376,Spain,Europe,Rupes Altai,LAC-96,http://planetarynames.wr.usgs.gov/Feature/7044
Almanon B,Almanon B,1/1/2006,Abdalla Al Mamun; Persian astronomer (786-833).,23.5956,15.26131078,-18.33434565,Satellite Feature,SF,Adopted by IAU,14.86836433,15.68798637,-18.69765282,-17.91951561,Persian,Asia,Rupes Altai,LAC-96,http://planetarynames.wr.usgs.gov/Feature/7189
Almanon C,Almanon C,1/1/2006,Abdalla Al Mamun; Persian astronomer (786-833).,15.6168,15.97982795,-16.16311839,Satellite Feature,SF,Adopted by IAU,15.7028141,16.23899651,-16.42240715,-15.90739822,Persian,Asia,Rupes Altai,LAC-96,http://planetarynames.wr.usgs.gov/Feature/7190
Anaximander S,Anaximander S,1/1/2006,Greek astronomer (c. 611-547 B.C.).,7.20851,306.4022249,68.35470322,Satellite Feature,SF,Adopted by IAU,306.0802898,306.7241611,68.23584175,68.47356606,Greek,Europe,Carpenter,LAC-2,http://planetarynames.wr.usgs.gov/Feature/7244
Anaximander T,Anaximander T,1/1/2006,Greek astronomer (c. 611-547 B.C.).,7.01141,307.7292608,67.29653219,Satellite Feature,SF,Adopted by IAU,307.4297237,308.0287991,67.18092155,67.41214561,Greek,Europe,Carpenter,LAC-2,http://planetarynames.wr.usgs.gov/Feature/7245
Anaximander U,Anaximander U,1/1/2006,Greek astronomer (c. 611-547 B.C.).,7.5434,311.49894,64.13814365,Satellite Feature,SF,Adopted by IAU,311.2140141,311.783865,64.01376152,64.26252556,Greek,Europe,Carpenter,LAC-2,http://planetarynames.wr.usgs.gov/Feature/7246
Anaximenes B,Anaximenes B,1/1/2006,Greek astronomer (585-528 B.C.).,8.34208,321.9374644,68.93939579,Satellite Feature,SF,Adopted by IAU,321.554781,322.3201542,68.80184364,69.07694817,Greek,Europe,Carpenter,LAC-2,http://planetarynames.wr.usgs.gov/Feature/7247
Abenezra H,Abenezra H,1/1/2006,"Abraham ben Meir Ibn Ezra; Spanish mathematician, astronomer (1092-1164/1167).",4.72432,12.71103042,-21.08649677,Satellite Feature,SF,Adopted by IAU,12.6275425,12.79451942,-21.16439438,-21.00859642,Spain,Europe,Rupes Altai,LAC-96,http://planetarynames.wr.usgs.gov/Feature/7046
Abenezra P,Abenezra P,1/1/2006,"Abraham ben Meir Ibn Ezra; Spanish mathematician, astronomer (1092-1164/1167).",39.2686,9.849644198,-20.01617869,Satellite Feature,SF,Adopted by IAU,9.160028458,10.53848839,-20.66499901,-19.36997604,Spain,Europe,Purbach,LAC-95,http://planetarynames.wr.usgs.gov/Feature/7048
Abul Wáfa A,Abul Wafa A,1/1/2006,"Abū al-Wafā al-Būzajāni; Persian mathematician, astronomer (940-998).",14.9789,116.8593548,1.397129941,Satellite Feature,SF,Adopted by IAU,116.6122952,117.1064167,1.150144577,1.644117355,Persian,Asia,Ostwald,LAC-65,http://planetarynames.wr.usgs.gov/Feature/7049
Abul Wáfa Q,Abul Wafa Q,1/1/2006,"Abū al-Wafā al-Būzajāni; Persian mathematician, astronomer (940-998).",31.0363,115.8836592,0.143679263,Satellite Feature,SF,Adopted by IAU,115.3719006,116.3954182,-0.368076324,0.655435562,Persian,Asia,Ostwald,LAC-65,http://planetarynames.wr.usgs.gov/Feature/7050
Abulfeda A,Abulfeda A,1/1/2006,Ismail Ibn Abū al-Fidā; Syrian geographer (1273-1331).,13.2578,10.75332559,-16.43025147,Satellite Feature,SF,Adopted by IAU,10.52538872,10.98126411,-16.64885712,-16.21164513,Syria,Asia,Rupes Altai,LAC-96,http://planetarynames.wr.usgs.gov/Feature/7051
Abulfeda B,Abulfeda B,1/1/2006,Ismail Ibn Abū al-Fidā; Syrian geographer (1273-1331).,15.4917,16.37047883,-14.50718485,Satellite Feature,SF,Adopted by IAU,16.10662651,16.63433266,-14.76262665,-14.25174332,Syria,Asia,Theophilus,LAC-78,http://planetarynames.wr.usgs.gov/Feature/7052
Hermann S,Hermann S,1/1/2006,Jacob; Swiss mathematician (1678-1733).,3.90467,304.391274,0.944884736,Satellite Feature,SF,Adopted by IAU,304.3268833,304.4556675,0.880502701,1.009267807,Switzerland,Europe,Hevelius,LAC-56,http://planetarynames.wr.usgs.gov/Feature/9914
Abulfeda C,Abulfeda C,1/1/2006,Ismail Ibn Abū al-Fidā; Syrian geographer (1273-1331).,16.4257,10.82897821,-12.79296607,Satellite Feature,SF,Adopted by IAU,10.55122948,11.10672951,-13.06380844,-12.52212334,Syria,Asia,Theophilus,LAC-78,http://planetarynames.wr.usgs.gov/Feature/7054
Abulfeda D,Abulfeda D,1/1/2006,Ismail Ibn Abū al-Fidā; Syrian geographer (1273-1331).,19.6813,9.46121959,-13.24742071,Satellite Feature,SF,Adopted by IAU,9.127592087,9.794404984,-13.57206345,-12.92301369,Syria,Asia,Ptolemaeus,LAC-77,http://planetarynames.wr.usgs.gov/Feature/7055
