Category,name,clean_name,approvaldt,origin,diameter,center_lon,center_lat,type,code,approval,min_lon,max_lon,min_lat,max_lat,ethnicity,continent,quad_name,quad_code,link
Oceanus,Oceanus Procellarum,Oceanus Procellarum,1935-01-01,"""""""Ocean of Storms.""""""",2592.239999999999782,303.322606056001973,20.671421893313500,"""Oceanus, oceani""",OC,Adopted by IAU,278.916486740112020,333.150156021117994,-16.265825271606399,57.432962417602504,Latin,Europe,Seleucus,LAC-38,http://planetarynames.wr.usgs.gov/Feature/4395
Mare,Mare Australe,Mare Australe,1935-01-01,"""""""Southern Sea.""""""",996.840000000000032,91.985363718558403,-47.770529265198697,"""Mare, maria""",ME,Adopted by IAU,70.433118820190401,113.363332748413001,-64.195346832275405,-31.837930679321300,Latin,Europe,Mare Australe,LAC-116,http://planetarynames.wr.usgs.gov/Feature/3665
Mare,Mare Spumans,Mare Spumans,1935-01-01,"""""""Foaming Sea.""""""",143.132000000000005,65.303272672000006,1.302304884000080,"""Mare, maria""",ME,Adopted by IAU,63.613428115844698,66.732904434204102,-1.061803817749020,3.722482681274410,Latin,Europe,Mare Undarum,LAC-62,http://planetarynames.wr.usgs.gov/Feature/3690
Mare,Mare Fecunditatis,Mare Fecunditatis,1935-01-01,"""""""Sea of Fecundity.""""""",840.354000000000042,53.669148726000103,-7.834974466999940,"""Mare, maria""",ME,Adopted by IAU,40.770692825317397,63.339544296264599,-21.695199966430700,6.111688613891600,Latin,Europe,Langrenus,LAC-80,http://planetarynames.wr.usgs.gov/Feature/3673
Mare,Mare Humboldtianum,Mare Humboldtianum,1935-01-01,"""Humboldt, Alexander von; German natural historian (1769-1859).""",230.782000000000011,81.542834414000097,56.922095552000101,"""Mare, maria""",ME,Adopted by IAU,74.745248794555707,88.489507675170898,53.652925491333001,60.017068862915004,Germany,Europe,Belkovich,LAC-15,http://planetarynames.wr.usgs.gov/Feature/3676
Mare,Mare Humorum,Mare Humorum,1935-01-01,"""""""Sea of Moisture.""""""",419.668999999999983,321.428394647000005,-24.478459705999899,"""Mare, maria""",ME,Adopted by IAU,314.174226760863974,329.389524459838981,-31.059396743774400,-18.437410354614300,Latin,Europe,Mare Humorum,LAC-93,http://planetarynames.wr.usgs.gov/Feature/3677
Mare,Mare Marginis,Mare Marginis,1935-01-01,"""""""Sea of the Edge.""""""",357.632000000000005,86.515294255000100,12.701879385000000,"""Mare, maria""",ME,Adopted by IAU,81.150800704956097,93.352819442748995,9.811273574829100,18.591558456420898,Latin,Europe,Neper,LAC-63,http://planetarynames.wr.usgs.gov/Feature/3681
Mare,Mare Moscoviense,Mare Moscoviense,1961-01-01,"""""""Sea of Muscovy.""""""",275.569999999999993,148.122479064999993,27.281589339000000,"""Mare, maria""",ME,Adopted by IAU,143.412191390991012,153.260618209839009,22.954244613647500,31.497438430786101,Latin,Europe,Mare Moscoviense,LAC-48,http://planetarynames.wr.usgs.gov/Feature/3682
Mare,Mare Nectaris,Mare Nectaris,1935-01-01,"""""""Sea of Nectar.""""""",339.387000000000000,34.602054138000099,-15.185168061999899,"""Mare, maria""",ME,Adopted by IAU,28.751470565795898,39.678094863891602,-21.058614730835000,-9.904996871948240,Latin,Europe,Colombo,LAC-79,http://planetarynames.wr.usgs.gov/Feature/3683
Mare,Mare Serenitatis,Mare Serenitatis,1935-01-01,"""""""Sea of Serenity.""""""",674.278000000000020,18.359644420000102,27.287884701999999,"""Mare, maria""",ME,Adopted by IAU,6.588159561157230,29.924287796020501,16.133169174194300,37.809206008911097,Latin,Europe,Mare Serenitatis,LAC-42,http://planetarynames.wr.usgs.gov/Feature/3686
Mare,Mare Smythii,Mare Smythii,1935-01-01,"""Smyth, William Henry; British astronomer (1788-1865).""",373.964999999999975,87.049470546000094,-1.708755470999960,"""Mare, maria""",ME,Adopted by IAU,80.940538406372099,92.718599319457994,-7.455524444580080,4.495634078979490,Great Britain,Europe,Ansgarius,LAC-81,http://planetarynames.wr.usgs.gov/Feature/3689
Mare,Mare Anguis,Mare Anguis,1935-01-01,"""""""Serpent Sea.""""""",145.985999999999990,67.575270145000005,22.426799376000101,"""Mare, maria""",ME,Adopted by IAU,65.698965072631793,69.949987411498995,20.145967483520501,24.736085891723601,Latin,Europe,Cleomedes,LAC-44,http://planetarynames.wr.usgs.gov/Feature/3664
Mare,Mare Ingenii,Mare Ingenii,1961-01-01,"""""""Sea of Cleverness.""""""",282.204000000000008,164.826818972000012,-33.245795069999900,"""Mare, maria""",ME,Adopted by IAU,158.553354263306005,169.851552963257006,-37.422378540039098,-28.536428451538100,Latin,Europe,Mare Ingenii,LAC-119,http://planetarynames.wr.usgs.gov/Feature/3679
Mare,Mare Insularum,Mare Insularum,1976-01-01,"""""""Sea of Islands.""""""",511.932999999999993,329.359787507000021,7.791958242000080,"""Mare, maria""",ME,Adopted by IAU,320.804742813110011,337.846529006958008,-0.596075057983398,16.345277786254901,Latin,Europe,Kepler,LAC-57,http://planetarynames.wr.usgs.gov/Feature/3680
Mare,Mare Cognitum,Mare Cognitum,1964-01-01,"""""""Sea that has become known."""" Ranger VII impact site.""",350.009000000000015,337.685643539000012,-10.530816759999899,"""Mare, maria""",ME,Adopted by IAU,331.900392532348974,343.553861618041992,-13.923221588134799,-5.896581649780270,Latin,Europe,Montes Riphaeus,LAC-76,http://planetarynames.wr.usgs.gov/Feature/3670
Mare,Mare Crisium,Mare Crisium,1935-01-01,"""""""Sea of Crises.""""""",555.921000000000049,59.103747263999999,16.177371453000099,"""Mare, maria""",ME,Adopted by IAU,49.509840011596701,68.528081893920898,9.689210891723629,24.534387588501001,Latin,Europe,Cleomedes,LAC-44,http://planetarynames.wr.usgs.gov/Feature/3671
Mare,Mare Tranquillitatis,Mare Tranquillitatis,1935-01-01,"""""""Sea of Tranquility.""""""",875.749000000000024,30.834624311000098,8.348715801000081,"""Mare, maria""",ME,Adopted by IAU,16.924020767211900,45.490331649780302,-4.051191329956050,19.374769210815401,Latin,Europe,Taruntius,LAC-61,http://planetarynames.wr.usgs.gov/Feature/3691
Mare,Mare Undarum,Mare Undarum,1935-01-01,"""""""Sea of Waves.""""""",244.842999999999989,68.658947077000093,7.491193895000040,"""Mare, maria""",ME,Adopted by IAU,65.235937118530302,72.486467361450195,3.606878280639650,10.239484786987299,Latin,Europe,Mare Undarum,LAC-62,http://planetarynames.wr.usgs.gov/Feature/3693
Mare,Mare Nubium,Mare Nubium,1935-01-01,"""""""Sea of Clouds.""""""",714.499000000000024,342.712786886999993,-20.589442219999899,"""Mare, maria""",ME,Adopted by IAU,330.732522964477994,354.554365158080998,-30.480968475341800,-11.852054595947299,Latin,Europe,Pitatus,LAC-94,http://planetarynames.wr.usgs.gov/Feature/3684
Mare,Mare Orientale,Mare Orientale,1964-01-01,"""""""Eastern sea.""""""",294.154999999999973,265.329682236999986,-19.865549720999901,"""Mare, maria""",ME,Adopted by IAU,260.037054061889989,270.258600234985011,-24.390104293823200,-15.231000900268601,Latin,Europe,Mare Orientale,LAC-108,http://planetarynames.wr.usgs.gov/Feature/3685
Mare,Mare Frigoris,Mare Frigoris,1935-01-01,"""""""Sea of Cold.""""""",1446.410000000000082,359.993619333000026,57.592307550000001,"""Mare, maria""",ME,Adopted by IAU,316.864744186401992,398.032998489380020,49.080606460571303,64.381753921508704,Latin,Europe,Plato,LAC-12,http://planetarynames.wr.usgs.gov/Feature/3674
Mare,Mare Imbrium,Mare Imbrium,1935-01-01,"""""""Sea of Showers.""""""",1145.529999999999973,345.091401909000012,34.724431265000099,"""Mare, maria""",ME,Adopted by IAU,321.637918472289982,368.555497573853017,15.232805252075300,51.461862564087099,Latin,Europe,Sinus Iridum,LAC-24,http://planetarynames.wr.usgs.gov/Feature/3678
Mare,Mare Vaporum,Mare Vaporum,1935-01-01,"""""""Sea of Vapors.""""""",242.457999999999998,4.086173394453300,13.196673889220600,"""Mare, maria""",ME,Adopted by IAU,359.586671829223974,368.729279922484977,9.389253616333010,16.905309677124102,Latin,Europe,Mare Vaporum,LAC-59,http://planetarynames.wr.usgs.gov/Feature/3694
Mons,Mons Ampère,Mons Ampere,1935-01-01,"""André-Marie; French physicist (1775-1836).""",29.958700000000000,356.290477980551998,19.323887245689100,"""Mons, montes""",MO,Adopted by IAU,355.937860488891999,356.702383041382006,18.929491043090799,19.815366744995099,France,Europe,Montes Apenninus,LAC-41,http://planetarynames.wr.usgs.gov/Feature/3971
Mons,Mons Dilip,Mons Dilip,1976-01-01,Indian male name.,1.368930000000000,120.866579339226007,5.582618937946390,"""Mons, montes""",MO,Adopted by IAU,120.844114303588995,120.887395858765004,5.562570571899410,5.602849960327150,India,Asia,Ostwald,LAC-65,http://planetarynames.wr.usgs.gov/Feature/3978
Mons,Mons Gruithuisen Delta,Mons Gruithuisen Delta,1976-01-01,Named from nearby crater.,27.242899999999999,320.410140938720019,36.067817322461998,"""Mons, montes""",MO,Adopted by IAU,319.949716567992994,320.910089492798022,35.655729293823200,36.552267074584996,Germany,Europe,Rümker,LAC-23,http://planetarynames.wr.usgs.gov/Feature/3981
Mons,Mons Gruithuisen Gamma,Mons Gruithuisen Gamma,1976-01-01,Named from nearby crater.,19.652500000000000,319.278715151451991,36.558483750820699,"""Mons, montes""",MO,Adopted by IAU,318.879411697387980,319.674451828002987,36.181936264038100,36.942171096801800,Germany,Europe,Rümker,LAC-23,http://planetarynames.wr.usgs.gov/Feature/3982
Mons,Mons Usov,Mons Usov,1979-01-01,"""Mikhail Antonovich; Soviet geologist (1883-1939).""",13.226699999999999,63.263630781396500,11.908045372363800,"""Mons, montes""",MO,Adopted by IAU,63.098768234252901,63.425436019897496,11.690080642700201,12.153131484985400,Soviet,Europe,Mare Undarum,LAC-62,http://planetarynames.wr.usgs.gov/Feature/3995
Mons,Mons Vinogradov,Mons Vinogradov,1979-01-01,"""Aleksandr Pavlovich; Soviet geochemist and cosmochemist (1895-1975).""",28.734000000000002,327.481018529636003,22.349669000119398,"""Mons, montes""",MO,Adopted by IAU,327.010290145874023,328.044424057007006,21.916875839233398,22.807119369506800,Soviet,Europe,Aristarchus,LAC-39,http://planetarynames.wr.usgs.gov/Feature/3996
Mons,Montes Haemus,Montes Haemus,1961-01-01,Named for range in the Balkans.,384.663000000000011,12.030781388572301,17.107147471674299,"""Mons, montes""",MO,Adopted by IAU,4.662656784057620,21.138963699340799,14.077650070190399,23.163717269897500,Bulgaria,Europe,Mare Serenitatis,LAC-42,http://planetarynames.wr.usgs.gov/Feature/4009
Mons,Montes Harbinger,Montes Harbinger,1961-01-01,Harbingers of dawn on crater Aristarchus.,92.696200000000005,318.709863730849008,26.892333520353901,"""Mons, montes""",MO,Adopted by IAU,317.473615646362020,319.653596878051985,25.557394027710000,28.471223831176800,Latin,Europe,Aristarchus,LAC-39,http://planetarynames.wr.usgs.gov/Feature/4010
Mons,Montes Pyrenaeus,Montes Pyrenaeus,1961-01-01,Named from terrestrial Pyrenees.,251.332999999999998,41.509702241615997,-14.047984383356100,"""Mons, montes""",MO,Adopted by IAU,39.555902481079102,42.965219497680700,-18.185710906982401,-10.213161468505900,Spain,Europe,Colombo,LAC-79,http://planetarynames.wr.usgs.gov/Feature/4012
Mons,Montes Jura,Montes Jura,1961-01-01,Named from terrestrial Jura Mountains.,420.795999999999992,323.888996383537972,47.493528939838797,"""Mons, montes""",MO,Adopted by IAU,322.228059768676985,332.361001968384016,41.059717178344698,48.681074142456097,Germany,Europe,Sinus Iridum,LAC-24,http://planetarynames.wr.usgs.gov/Feature/4011
Mons,Montes Secchi,Montes Secchi,1976-01-01,Named from nearby crater.,52.466000000000001,43.172759054887898,2.717180423324580,"""Mons, montes""",MO,Adopted by IAU,42.729154586791999,43.616365432739300,1.974195480346680,3.460165023803710,Italy,Europe,Taruntius,LAC-61,http://planetarynames.wr.usgs.gov/Feature/4016
Mons,Mons Agnes,Mons Agnes,1979-01-01,Greek female name.,0.000000000000000,5.333100000000000,18.657100000000000,"""Mons, montes""",MO,Adopted by IAU,5.340450837099180,5.340450837099180,18.661865986151700,18.661865986151700,Greek,Europe,Montes Apenninus,LAC-41,http://planetarynames.wr.usgs.gov/Feature/3970
Mons,Mons Vitruvius,Mons Vitruvius,1976-01-01,Named from nearby crater.,44.277900000000002,30.735268410640099,19.333457874147800,"""Mons, montes""",MO,Adopted by IAU,30.271272659301800,31.363676071166999,18.720247268676800,19.902578353881800,Roman,Europe,Macrobius,LAC-43,http://planetarynames.wr.usgs.gov/Feature/3997
Mons,Mons Hadley Delta,Mons Hadley Delta,1935-01-01,Named from nearby mountain (Mons Hadley).,17.241499999999998,3.706508505404910,25.723002791982601,"""Mons, montes""",MO,Adopted by IAU,3.459554672241210,3.864667892456050,25.436048507690401,25.990694046020501,Great Britain,Europe,Montes Apenninus,LAC-41,http://planetarynames.wr.usgs.gov/Feature/3984
Mons,Mons Wolff,Mons Wolff,1961-01-01,"""Christian, Baron von; German philosopher (1679-1754).""",32.866500000000002,353.198606847371025,16.879063753293000,"""Mons, montes""",MO,Adopted by IAU,352.632295608521019,353.669740676879996,16.457708358764599,17.545312881469702,Germany,Europe,Montes Apenninus,LAC-41,http://planetarynames.wr.usgs.gov/Feature/3998
Mons,Mont Blanc,Mont Blanc,1935-01-01,Named for terrestrial mountain in Alps.,21.567699999999999,0.440275211405298,45.412995405447397,"""Mons, montes""",MO,Adopted by IAU,0.026250839233398,0.769586563110352,45.020383834838903,45.731843948364300,France,Europe,Cassini,LAC-25,http://planetarynames.wr.usgs.gov/Feature/4000
Mons,Montes Recti,Montes Recti,1961-01-01,"""Latin for """"straight range.""""""",83.237799999999993,340.276084366628993,48.295672871170900,"""Mons, montes""",MO,Adopted by IAU,338.172780990600984,342.304536819458008,47.948999404907198,48.894277572631800,Latin,Europe,Plato,LAC-12,http://planetarynames.wr.usgs.gov/Feature/4013
Mons,Montes Carpatus,Montes Carpatus,1961-01-01,Named from terrestrial Carpathians.,333.591999999999985,336.375544860095999,14.567672539305001,"""Mons, montes""",MO,Adopted by IAU,330.748262405396019,341.854501724242994,13.368120193481399,17.512983322143601,Romania (Rumania),Europe,Copernicus,LAC-58,http://planetarynames.wr.usgs.gov/Feature/4006
Mons,Montes Caucasus,Montes Caucasus,1961-01-01,Named from terrestrial Caucasus Mountains.,443.504999999999995,9.931052558717679,37.518823091967903,"""Mons, montes""",MO,Adopted by IAU,6.059972763061520,14.267591476440399,30.528570175170898,44.264562606811502,Caucasus,Europe,Cassini,LAC-25,http://planetarynames.wr.usgs.gov/Feature/4007
Mons,Montes Teneriffe,Montes Teneriffe,1935-01-01,Named from terrestrial island.,111.983000000000004,346.812848589638975,47.890800085244599,"""Mons, montes""",MO,Adopted by IAU,344.366701126098974,349.399312973022006,46.488271713256800,49.211568832397496,Canary Is.,Africa,Cassini,LAC-25,http://planetarynames.wr.usgs.gov/Feature/4019
Mons,Mons Piton,Mons Piton,1935-01-01,Named from Mt. Piton on Tenerife Islands.,22.501799999999999,359.077280729467986,40.716676716888102,"""Mons, montes""",MO,Adopted by IAU,358.709653854370004,359.460969924926985,40.318391799926800,41.075380325317397,Canary Is.,Africa,Cassini,LAC-25,http://planetarynames.wr.usgs.gov/Feature/3993
Mons,Mons La Hire,Mons La Hire,1935-01-01,"""Philippe De; French mathematician, astronomer (1640-1718).""",21.706399999999999,334.494652082809012,27.661248170444001,"""Mons, montes""",MO,Adopted by IAU,334.052564620972021,334.884557723999023,27.486787796020501,27.880647659301800,France,Europe,Timocharis,LAC-40,http://planetarynames.wr.usgs.gov/Feature/3988
Mons,Montes Spitzbergen,Montes Spitzbergen,1961-01-01,"""German for """"sharp peaks"""", and named for resemblance to the terrestrial island group.""",59.186599999999999,354.786523380854021,34.472380546318000,"""Mons, montes""",MO,Adopted by IAU,354.160673141478981,355.329198837279989,33.554040908813498,35.545389175415004,Germany,Europe,Cassini,LAC-25,http://planetarynames.wr.usgs.gov/Feature/4017
Mons,Montes Taurus,Montes Taurus,1935-01-01,Named from terrestrial Taurus Mts.,166.163000000000011,40.335485573714401,27.323236726346099,"""Mons, montes""",MO,Adopted by IAU,37.251920700073200,43.262720108032198,24.339075088501001,30.074216842651399,Turkey,Asia,Macrobius,LAC-43,http://planetarynames.wr.usgs.gov/Feature/4018
Mons,Mons Hadley,Mons Hadley,1935-01-01,"""John, British instrument maker (1682-1744).""",26.395600000000002,4.118328346871090,26.694822520154901,"""Mons, montes""",MO,Adopted by IAU,3.743562698364260,4.397912979125980,26.321844100952099,27.130266189575199,Great Britain,Europe,Montes Apenninus,LAC-41,http://planetarynames.wr.usgs.gov/Feature/3983
Mons,Mons Maraldi,Mons Maraldi,1976-01-01,Named from nearby crater.,15.896100000000001,35.501223525785598,20.338801758725300,"""Mons, montes""",MO,Adopted by IAU,35.218492507934599,35.778261184692397,20.106821060180700,20.568201065063501,Italy,Europe,Macrobius,LAC-43,http://planetarynames.wr.usgs.gov/Feature/3989
Mons,Mons Moro,Mons Moro,1976-01-01,"""Antonio Lazzaro; Italian Earth scientist (1687-1764).""",13.680600000000000,340.156292046117983,-11.838706677905400,"""Mons, montes""",MO,Adopted by IAU,339.989843368529989,340.291769027710018,-12.054395675659199,-11.614877700805700,Italy,Europe,Montes Riphaeus,LAC-76,http://planetarynames.wr.usgs.gov/Feature/3990
Mons,Mons Penck,Mons Penck,1976-01-01,"""Albrecht; German geographer (1858-1945).""",37.589900000000000,21.744830304308699,-10.003782969762200,"""Mons, montes""",MO,Adopted by IAU,21.069047927856399,22.295110702514599,-10.437450408935501,-9.540893554687500,Germany,Europe,Theophilus,LAC-78,http://planetarynames.wr.usgs.gov/Feature/3991
Mons,Mons Pico,Mons Pico,1935-01-01,"""Spanish for """"peak.""""""",24.419200000000000,351.132698389609004,45.824784161205997,"""Mons, montes""",MO,Adopted by IAU,350.609811782837028,351.575281143188022,45.441377639770501,46.149580001831097,Spain,Europe,Cassini,LAC-25,http://planetarynames.wr.usgs.gov/Feature/3992
Mons,Mons Rümker,Mons Rumker,1935-01-01,"""Karl Ludwig Christian; German astronomer (1788-1862).""",73.248599999999996,301.622457268751987,40.760724816277602,"""Mons, montes""",MO,Adopted by IAU,300.156991958617994,303.324316024779989,39.370149612426800,41.876764297485401,Germany,Europe,Rümker,LAC-23,http://planetarynames.wr.usgs.gov/Feature/3994
Mons,Mons André,Mons Andre,1976-01-01,French male name.,10.516700000000000,120.560323620643004,5.182726444428000,"""Mons, montes""",MO,Adopted by IAU,120.446111679077006,120.699522018433001,4.993558883666990,5.392118453979490,France,Europe,Ostwald,LAC-65,http://planetarynames.wr.usgs.gov/Feature/3972
Mons,Mons Ardeshir,Mons Ardeshir,1976-01-01,Persian male name.,7.101250000000000,121.041715264564999,5.025895480188980,"""Mons, montes""",MO,Adopted by IAU,120.986932754516999,121.101144790649002,4.914995193481450,5.147588729858400,Persian,Asia,Ostwald,LAC-65,http://planetarynames.wr.usgs.gov/Feature/3973
Mons,Mons Argaeus,Mons Argaeus,1935-01-01,Named from peak in Asia Minor (now Erciyas Dagi).,61.475999999999999,29.006783616343601,19.330868665138901,"""Mons, montes""",MO,Adopted by IAU,28.060663223266602,30.043012619018601,18.707281112670898,20.349683761596701,Turkey,Asia,Mare Serenitatis,LAC-42,http://planetarynames.wr.usgs.gov/Feature/3974
Mons,Mons Delisle,Mons Delisle,1985-01-01,Named from nearby crater.,32.422300000000000,324.211658096834981,29.424894716421800,"""Mons, montes""",MO,Adopted by IAU,323.891923904419002,324.620046615600984,28.914545059204102,29.983507156372099,France,Europe,Aristarchus,LAC-39,http://planetarynames.wr.usgs.gov/Feature/3976
Mons,Mons Dieter,Mons Dieter,1976-01-01,German male name.,20.411300000000001,120.297749369548001,4.996696930093600,"""Mons, montes""",MO,Adopted by IAU,120.124227523803995,120.443387985228995,4.692228317260740,5.360788345336910,Germany,Europe,Ostwald,LAC-65,http://planetarynames.wr.usgs.gov/Feature/3977
Mons,Mons Esam,Mons Esam,1979-01-01,Arabic male name.,7.920950000000000,35.705657617861903,14.608143589565801,"""Mons, montes""",MO,Adopted by IAU,35.653776168823200,35.766386032104499,14.481058120727500,14.735231399536101,Arabian,Asia,Taruntius,LAC-61,http://planetarynames.wr.usgs.gov/Feature/3979
Mons,Mons Ganau,Mons Ganau,1976-01-01,African male name.,13.493100000000000,120.588814227203002,4.791928029977790,"""Mons, montes""",MO,Adopted by IAU,120.446046829224002,120.721452713012994,4.567819595336910,5.007863998413090,,,Ostwald,LAC-65,http://planetarynames.wr.usgs.gov/Feature/3980
Mons,Mons Hansteen,Mons Hansteen,1976-01-01,Named from nearby crater.,30.647700000000000,309.785197714489982,-12.194833431479200,"""Mons, montes""",MO,Adopted by IAU,309.395479202271019,310.261972427367994,-12.669534683227500,-11.661239624023400,Sweden,Europe,Grimaldi,LAC-74,http://planetarynames.wr.usgs.gov/Feature/3985
Mons,Mons Herodotus,Mons Herodotus,1976-01-01,Named from nearby crater.,6.765370000000000,307.064313444226002,27.501485640998300,"""Mons, montes""",MO,Adopted by IAU,306.917978286742994,307.200681686401026,27.419351577758800,27.599637985229499,Greek,Europe,Seleucus,LAC-38,http://planetarynames.wr.usgs.gov/Feature/3986
Mons,Mons Huygens,Mons Huygens,1961-01-01,"""Christiaan; Dutch astronomer, mathematician, physicist (1629-1695).""",41.967799999999997,357.142902929874026,19.918848469304301,"""Mons, montes""",MO,Adopted by IAU,356.680303573608001,357.558050155639989,19.202630996704102,20.577157974243200,The Netherlands (Dutch),Europe,Montes Apenninus,LAC-41,http://planetarynames.wr.usgs.gov/Feature/3987
Mons,Montes Agricola,Montes Agricola,1976-01-01,"""Georgius; German Earth scientist (1494-1555).""",159.759999999999991,305.928458766224992,29.059301257709699,"""Mons, montes""",MO,Adopted by IAU,303.590253829955998,308.266664505004996,27.199232101440401,30.638994216918899,Germany,Europe,Seleucus,LAC-38,http://planetarynames.wr.usgs.gov/Feature/4002
Mons,Montes Archimedes,Montes Archimedes,1976-01-01,Named from nearby crater.,146.537000000000006,354.750213628036022,25.393880306964199,"""Mons, montes""",MO,Adopted by IAU,352.451654434203988,356.698991775512980,23.109598159790000,27.885175704956101,Greek,Europe,Montes Apenninus,LAC-41,http://planetarynames.wr.usgs.gov/Feature/4005
Mons,Montes Riphaeus,Montes Riphaeus,1961-01-01,Named from range in Asia (now Ural Mountains).,190.117999999999995,332.397532448401023,-7.482873022214060,"""Mons, montes""",MO,Adopted by IAU,330.980585098266999,334.613336563110011,-10.630401611328100,-4.754096984863280,Russia,Europe,Montes Riphaeus,LAC-76,http://planetarynames.wr.usgs.gov/Feature/4014
Mons,Montes Cordillera,Montes Cordillera,1961-01-01,"""Spanish for """"mountain chain.""""""",963.500999999999976,265.069034585055022,-19.435802959713701,"""Mons, montes""",MO,Adopted by IAU,247.963994979859990,281.713994979859990,-34.890159606932997,-4.172386169433000,Spain,Europe,Mare Orientale,LAC-108,http://planetarynames.wr.usgs.gov/Feature/4008
Mons,Mons Bradley,Mons Bradley,1961-01-01,"""James; British astronomer (1693-1762).""",76.491500000000002,0.381367631436475,21.727631404170200,"""Mons, montes""",MO,Adopted by IAU,359.474328994750977,361.249734329223998,20.605390548706101,22.872499465942401,Great Britain,Europe,Montes Apenninus,LAC-41,http://planetarynames.wr.usgs.gov/Feature/3975
Mons,Montes Alpes,Montes Alpes,1935-01-01,Named from terrestrial Alps.,334.478999999999985,359.424382396660008,48.358772799379501,"""Mons, montes""",MO,Adopted by IAU,354.395925521850984,363.221139358520986,42.041524887085103,52.807954788208100,Switzerland,Europe,Plato,LAC-12,http://planetarynames.wr.usgs.gov/Feature/4003
Mons,Montes Apenninus,Montes Apenninus,1961-01-01,Named from terrestrial Apennines.,599.674999999999955,0.025308480027807,19.871430594238600,"""Mons, montes""",MO,Adopted by IAU,349.794984817504996,367.337220596314012,14.630281448364300,28.467508316040000,Italy,Europe,Montes Apenninus,LAC-41,http://planetarynames.wr.usgs.gov/Feature/4004
Mons,Montes Rook,Montes Rook,1964-01-01,"""Lawrence; British astronomer (1622-1666).""",682.274999999999977,265.052307562282977,-19.486774777846001,"""Mons, montes""",MO,Adopted by IAU,253.828180313110011,276.899469375610011,-30.545005798340000,-8.045005798340000,Great Britain,Europe,Mare Orientale,LAC-108,http://planetarynames.wr.usgs.gov/Feature/4015
Mons,Mons Tai,Mons Tai,2019-02-04,"""Named from terrestrial Mount Tai, in Shandong, China.""",24.000000000000000,175.830000000000013,-44.560000000000002,"""Mons, montes""",MO,Adopted by IAU,175.433532714839998,176.276733398440001,-44.934425354003999,-44.217567443847997,China,Asia,Mare Ingenii,LAC-119,http://planetarynames.wr.usgs.gov/Feature/15785
Catena,Catena Brigitte,Catena Brigitte,1976-01-01,French female name.,7.650300000000000,27.492963439368101,18.495359322403999,"""Catena, catenae""",CA,Adopted by IAU,27.378942489623999,27.606985092163100,18.430402755737301,18.560316085815401,France,Europe,Mare Serenitatis,LAC-42,http://planetarynames.wr.usgs.gov/Feature/1057
Catena,Catena Sylvester,Catena Sylvester,1976-01-01,Named from nearby crater.,139.000000000000000,276.882236642917974,79.989784939494996,"""Catena, catenae""",CA,Adopted by IAU,270.121671676636026,282.737813949585018,78.044073104858398,82.066274642944293,Great Britain,Europe,Brianchon,LAC-9,http://planetarynames.wr.usgs.gov/Feature/1071
Catena,Catena Abulfeda,Catena Abulfeda,1976-01-01,Named from nearby crater.,209.972000000000008,16.700132415052600,-16.591157518947501,"""Catena, catenae""",CA,Adopted by IAU,13.620561599731399,19.678888320922901,-18.552341461181602,-14.786891937255900,Syria,Asia,Rupes Altai,LAC-96,http://planetarynames.wr.usgs.gov/Feature/1055
Catena,Catena Artamonov,Catena Artamonov,1976-01-01,Named from nearby crater.,131.215000000000003,105.771818801999999,26.091608680000000,"""Catena, catenae""",CA,Adopted by IAU,104.247396469115998,107.296243667602994,24.411264419555700,27.771955490112301,Soviet,Europe,Joliot,LAC-46,http://planetarynames.wr.usgs.gov/Feature/1056
Catena,Catena Davy,Catena Davy,1976-01-01,Named from nearby crater.,52.336100000000002,353.734424345262994,-10.984739060771799,"""Catena, catenae""",CA,Adopted by IAU,352.905443191527979,354.495302200316985,-11.258619308471699,-10.551465988159199,Great Britain,Europe,Ptolemaeus,LAC-77,http://planetarynames.wr.usgs.gov/Feature/1058
Catena,Catena Dziewulski,Catena Dziewulski,1976-01-01,Named from nearby crater.,80.659400000000005,100.269208899819006,18.775628048417602,"""Catena, catenae""",CA,Adopted by IAU,99.385389328002901,101.241239547728995,17.826883316040000,19.815427780151399,Poland,Europe,Joliot,LAC-46,http://planetarynames.wr.usgs.gov/Feature/1059
Catena,Catena Gregory,Catena Gregory,1976-01-01,Named from nearby crater.,148.157999999999987,129.802518496331999,-0.591886513842497,"""Catena, catenae""",CA,Adopted by IAU,128.311429977416992,131.294488906860011,-2.526634216308590,1.343542098999020,Scotland,Europe,Langemak,LAC-83,http://planetarynames.wr.usgs.gov/Feature/1060
Catena,Catena Humboldt,Catena Humboldt,1976-01-01,Named from nearby crater.,162.288000000000011,84.696989256000094,-21.980935567999900,"""Catena, catenae""",CA,Adopted by IAU,82.577230453491197,86.505334854126005,-23.775691986083999,-19.889265060424801,Germany,Europe,Humboldt,LAC-99,http://planetarynames.wr.usgs.gov/Feature/1061
Catena,Catena Krafft,Catena Krafft,1976-01-01,Named from nearby crater.,55.105400000000003,287.749741745359984,14.913554278198299,"""Catena, catenae""",CA,Adopted by IAU,287.559385299683015,287.940103530884016,14.023736953735400,15.803373336791999,Germany,Europe,Vasco da Gama,LAC-55,http://planetarynames.wr.usgs.gov/Feature/1062
Catena,Catena Kurchatov,Catena Kurchatov,1976-01-01,Named from nearby crater.,234.913000000000011,136.603346789010999,37.246545224027500,"""Catena, catenae""",CA,Adopted by IAU,131.989889144897006,140.829160690307987,35.226236343383803,38.145776748657198,Soviet,Europe,Campbell,LAC-31,http://planetarynames.wr.usgs.gov/Feature/1063
Catena,Catena Leuschner (GDL),Catena Leuschner  GDL,1979-01-01,"""Named from nearby crater; GDL=Gas Dynamics Laboratory""",200.057999999999993,248.695543856508010,5.073662985005540,"""Catena, catenae""",CA,Adopted by IAU,246.530527114867994,250.860563278197986,2.576910018920900,7.570417404174800,American,North America,Michelson,LAC-71,http://planetarynames.wr.usgs.gov/Feature/1064
Catena,Catena Littrow,Catena Littrow,1985-01-01,Named from nearby crater.,10.299799999999999,29.611389980475799,22.230806055378899,"""Catena, catenae""",CA,Adopted by IAU,29.428335189819300,29.794446945190401,22.219758987426800,22.241853713989300,Czechoslovakia,Europe,Mare Serenitatis,LAC-42,http://planetarynames.wr.usgs.gov/Feature/1065
Catena,Catena Lucretius (RNII),Catena Lucretius  RNII,1979-01-01,"""Named from nearby crater; RNII=Rocket Research Institute.""",232.064999999999998,233.554266396000003,-4.025842905999920,"""Catena, catenae""",CA,Adopted by IAU,230.153764724730991,236.954767227172994,-5.797388076782230,-2.254297256469730,Roman,Europe,Lucretius,LAC-89,http://planetarynames.wr.usgs.gov/Feature/1066
Catena,Catena Mendeleev,Catena Mendeleev,1976-01-01,Named from nearby crater.,125.219999999999999,139.216618789353987,6.630199158953580,"""Catena, catenae""",CA,Adopted by IAU,138.481267929077006,140.013799667358001,4.713911056518550,8.537061691284180,Russia,Europe,Mendeleev,LAC-66,http://planetarynames.wr.usgs.gov/Feature/1067
Catena,Catena Michelson (GIRD),Catena Michelson  GIRD,1979-01-01,"""Named from nearby crater; GIRD=Group for the Study of Reaction Motion.""",450.598000000000013,246.418845656999991,-0.442236825999942,"""Catena, catenae""",CA,Adopted by IAU,241.179204940796012,251.829477310181005,-5.540746688842770,4.833173751831050,Germany,Europe,Lucretius,LAC-89,http://planetarynames.wr.usgs.gov/Feature/1068
Catena,Catena Pierre,Catena Pierre,1976-01-01,French male name.,9.435029999999999,328.141632575329027,19.761239165647002,"""Catena, catenae""",CA,Adopted by IAU,327.983434677124023,328.279985427855991,19.761240005493200,19.835744857788100,France,Europe,Aristarchus,LAC-39,http://planetarynames.wr.usgs.gov/Feature/1069
Catena,Catena Taruntius,Catena Taruntius,1985-01-01,Named from nearby crater.,69.238900000000001,48.706421841937001,3.043059278607580,"""Catena, catenae""",CA,Adopted by IAU,47.678022384643597,49.718858718872099,2.514196395874020,3.541585922241210,Roman,Europe,Taruntius,LAC-61,http://planetarynames.wr.usgs.gov/Feature/1072
Catena,Catena Timocharis,Catena Timocharis,1985-01-01,Named from nearby crater.,48.369300000000003,346.794017099843984,29.094924392000099,"""Catena, catenae""",CA,Adopted by IAU,346.700017929076978,346.834890365600984,28.298295974731399,29.883008956909201,Greek,Europe,Timocharis,LAC-40,http://planetarynames.wr.usgs.gov/Feature/1073
Catena,Catena Yuri,Catena Yuri,1976-01-01,Russian male name.,4.517520000000000,329.618392213150003,24.408144245220900,"""Catena, catenae""",CA,Adopted by IAU,329.574239730835018,329.662546157837028,24.345441818237301,24.470849990844702,Russia,Europe,Aristarchus,LAC-39,http://planetarynames.wr.usgs.gov/Feature/1074
Catena,Catena Sumner,Catena Sumner,1976-01-01,Named from nearby crater.,220.516999999999996,111.910098090242002,37.891728831187798,"""Catena, catenae""",CA,Adopted by IAU,107.846235275268995,115.977628707885998,36.201013565063498,39.567514419555700,American,North America,Millikan,LAC-30,http://planetarynames.wr.usgs.gov/Feature/1070
Vallis,Vallis Krishna,Vallis Krishna,1976-01-01,"""Indian male name, part of Aratus CA.""",2.896130000000000,11.263211495178901,24.502298373223301,"""Vallis, valles""",VA,Adopted by IAU,11.212358474731399,11.315217971801800,24.497224807739300,24.514017105102500,India,Asia,Mare Serenitatis,LAC-42,http://planetarynames.wr.usgs.gov/Feature/3121
Vallis,Vallis Rheita,Vallis Rheita,1961-01-01,Named from nearby crater.,509.071000000000026,51.654037083017897,-42.512563619783201,"""Vallis, valles""",VA,Adopted by IAU,44.492834091186502,59.263936996459996,-48.694997787475600,-36.239171981811502,Czechoslovakia,Europe,Rheita,LAC-114,http://planetarynames.wr.usgs.gov/Feature/6298
Vallis,Vallis Schrödinger,Vallis Schrodinger,1970-01-01,Named from nearby crater.,301.714999999999975,104.880752923809993,-66.518491999525295,"""Vallis, valles""",VA,Adopted by IAU,99.119272232055707,111.403459548949996,-70.267070770263700,-61.665763854980497,Austria,Europe,Schrödinger,LAC-140,http://planetarynames.wr.usgs.gov/Feature/6299
Vallis,Vallis Alpes,Vallis Alpes,1961-01-01,"""""""Alpine Valley.""""""",155.417000000000002,3.631380845118370,49.208780303907901,"""Vallis, valles""",VA,Adopted by IAU,0.363134384155273,6.950338363647460,47.793699264526403,50.521162033081097,Switzerland,Europe,Plato,LAC-12,http://planetarynames.wr.usgs.gov/Feature/6290
Vallis,Vallis Baade,Vallis Baade,1964-01-01,Named from nearby crater.,206.788999999999987,282.770172959573983,-45.553348169171500,"""Vallis, valles""",VA,Adopted by IAU,280.086866378784009,285.244813919066985,-48.659519195556598,-42.815109252929702,Germany,Europe,Vallis Inghirami,LAC-109,http://planetarynames.wr.usgs.gov/Feature/6291
Vallis,Vallis Bohr,Vallis Bohr,1976-01-01,Named from nearby crater.,95.321899999999999,271.138121915867998,10.248944060338401,"""Vallis, valles""",VA,Adopted by IAU,271.121740341186978,271.189672470093001,8.684350967407230,11.755060195922900,Denmark,Europe,Vasco da Gama,LAC-55,http://planetarynames.wr.usgs.gov/Feature/6292
Vallis,Vallis Bouvard,Vallis Bouvard,1970-01-01,"""Alexis; French astronomer, mathematician (1767-1843).""",287.923999999999978,277.679615071884996,-38.449661352946201,"""Vallis, valles""",VA,Adopted by IAU,275.245294570923022,279.209856033325025,-42.189956665039098,-35.028169631958001,France,Europe,Vallis Inghirami,LAC-109,http://planetarynames.wr.usgs.gov/Feature/6293
Vallis,Vallis Capella,Vallis Capella,1984-01-01,Named from nearby crater.,106.280000000000001,35.038471639769000,-7.391784269822610,"""Vallis, valles""",VA,Adopted by IAU,33.784727096557603,36.227167129516602,-8.694559097290041,-6.003454208374020,Romania (Rumania),Europe,Colombo,LAC-79,http://planetarynames.wr.usgs.gov/Feature/6294
Vallis,Vallis Inghirami,Vallis Inghirami,1964-01-01,Named from nearby crater.,145.084000000000003,287.410347547890979,-43.947023348125597,"""Vallis, valles""",VA,Adopted by IAU,284.759695053100984,290.060998916625977,-45.392227172851598,-42.501817703247099,Italy,Europe,Vallis Inghirami,LAC-109,http://planetarynames.wr.usgs.gov/Feature/6295
Vallis,Vallis Palitzsch,Vallis Palitzsch,1964-01-01,Named from nearby crater.,110.498000000000005,64.637389778851897,-26.163498793992101,"""Vallis, valles""",VA,Adopted by IAU,64.418527603149400,64.887235641479506,-27.983272552490199,-24.393178939819300,Germany,Europe,Petavius,LAC-98,http://planetarynames.wr.usgs.gov/Feature/6296
Vallis,Vallis Planck,Vallis Planck,1970-01-01,Named from nearby crater.,502.899000000000001,126.155869395508006,-57.264891465885597,"""Vallis, valles""",VA,Adopted by IAU,124.172086715698001,129.322336196898988,-65.283163070678697,-49.309354782104499,Germany,Europe,Fechner,LAC-130,http://planetarynames.wr.usgs.gov/Feature/6297
Vallis,Vallis Christel,Vallis Christel,1976-01-01,"""German female name, part of Aratus CA.""",2.100180000000000,11.081438155053901,24.544103760758599,"""Vallis, valles""",VA,Adopted by IAU,11.043798446655300,11.119077682495099,24.540216445922901,24.547990798950199,Germany,Europe,Mare Serenitatis,LAC-42,http://planetarynames.wr.usgs.gov/Feature/1200
Vallis,Vallis Schröteri,Vallis Schroteri,1961-01-01,"Schröter's Valley.",185.323000000000008,308.419475889947023,26.155526028996299,"""Vallis, valles""",VA,Adopted by IAU,306.372838973999023,310.716543197632006,24.157045364379901,26.323015213012699,Germany,Europe,Seleucus,LAC-38,http://planetarynames.wr.usgs.gov/Feature/6300
Vallis,Vallis Snellius,Vallis Snellius,1964-01-01,Named from nearby crater.,640.000000000000000,57.838197109385597,-30.926210141549301,"""Vallis, valles""",VA,Adopted by IAU,47.027463912963903,69.351411819457994,-34.164463043212898,-26.081026077270501,The Netherlands (Dutch),Europe,Petavius,LAC-98,http://planetarynames.wr.usgs.gov/Feature/6301
Crater,Montanari,Montanari,1/1/1935,"""Geminiano; Italian astronomer, mathematician (1633-1687).""",77.0541,339.244931,-45.82822035,"""Crater, craters""",AA,Adopted by IAU,337.4519482,341.0379162,-46.95655632,-44.54006386,Italy,Europe,Wilhelm,LAC-111,http://planetarynames.wr.usgs.gov/Feature/4001
Crater,Zeeman,Zeeman,1/1/1970,Pieter; Dutch physicist; Nobel laureate (1865-1943).,186.556,224.9387035,-75.06821505,"""Crater, craters""",AA,Adopted by IAU,212.8794918,236.9974613,-78.14424896,-71.99224663,The Netherlands (Dutch),Europe,Zeeman,LAC-142,http://planetarynames.wr.usgs.gov/Feature/6711
Crater,Bürg,Burg,1/1/1935,Johann Tobias; Austrian astronomer (1766-1834).,41.0423,28.20813393,45.07339079,"""Crater, craters""",AA,Adopted by IAU,27.27300835,29.14326286,44.45453453,45.6966114,Austria,Europe,Eudoxus,LAC-26,http://planetarynames.wr.usgs.gov/Feature/948
Crater,Carlos,Carlos,1/1/1976,Spanish male name.,4.66924,2.283174344,24.90746541,"""Crater, craters""",AA,Adopted by IAU,2.251062393,2.310552597,24.84307671,24.99179268,Spain,Europe,Montes Apenninus,LAC-41,http://planetarynames.wr.usgs.gov/Feature/1019
Crater,C. Herschel,C  Herschel,1/1/1935,Caroline Lucretia; British astronomer (1750-1848).,13.7014,328.7050503,34.48152678,"""Crater, craters""",AA,Adopted by IAU,328.4549122,328.9990101,34.25601768,34.70702934,Great Britain,Europe,Sinus Iridum,LAC-24,http://planetarynames.wr.usgs.gov/Feature/950
Crater,Calippus,Calippus,1/1/1935,Calippus of Cyzicus; Greek astronomer (c. 370 B.C.).,34.0326,10.71750449,38.92489092,"""Crater, craters""",AA,Adopted by IAU,10.06195259,11.33496666,38.3472805,39.46087074,Greek,Europe,Eudoxus,LAC-26,http://planetarynames.wr.usgs.gov/Feature/972
Crater,Carol,Carol,1/1/1979,Latin female name.,6.25379,122.3684779,8.47924564,"""Crater, craters""",AA,Adopted by IAU,122.2642269,122.4727306,8.376127243,8.582365036,Latin,Europe,Ostwald,LAC-65,http://planetarynames.wr.usgs.gov/Feature/1024
Crater,Daniell,Daniell,1/1/1935,"""John Frederick; British physicist, chemist, meteorologist (1790-1845).""",28.204,31.16447922,35.42010959,"""Crater, craters""",AA,Adopted by IAU,30.66895103,31.63620186,34.96792793,35.87212181,Great Britain,Europe,Eudoxus,LAC-26,http://planetarynames.wr.usgs.gov/Feature/1400
Crater,De Vico,De Vico,1/1/1935,Francesco; Italian astronomer (1805-1848).,22.1343,299.6811411,-19.71141219,"""Crater, craters""",AA,Adopted by IAU,299.2934361,300.068922,-20.02849388,-19.404953,Italy,Europe,Byrgius,LAC-92,http://planetarynames.wr.usgs.gov/Feature/1448
Crater,Eudoxus,Eudoxus,1/1/1935,Greek astronomer (c. 408-355 B.C.).,70.1567,16.22565115,44.26556669,"""Crater, craters""",AA,Adopted by IAU,14.8596859,17.87983894,43.11002922,45.41988945,Greek,Europe,Eudoxus,LAC-26,http://planetarynames.wr.usgs.gov/Feature/1863
Crater,Ewen,Ewen,1/1/1979,Gaelic male name.,2.60314,121.4604253,7.690340631,"""Crater, craters""",AA,Adopted by IAU,121.4171124,121.5037403,7.647417068,7.733263016,Ireland,Europe,Ostwald,LAC-65,http://planetarynames.wr.usgs.gov/Feature/1891
Crater,Fedorov,Fedorov,1/1/1979,A.P.; Russian rocket scientist (1872-1920).,6.07683,322.953757,28.22654942,"""Crater, craters""",AA,Adopted by IAU,322.8856106,323.0441761,28.12773323,28.32536125,Russia,Europe,Aristarchus,LAC-39,http://planetarynames.wr.usgs.gov/Feature/1928
Crater,Florensky,Florensky,1/1/1985,Kirill Pavlovich; Soviet geologist (1915-1982).,69.0305,131.8507735,25.45167266,"""Crater, craters""",AA,Adopted by IAU,130.8711491,132.8304005,24.32153511,26.58595085,Soviet,Europe,Mare Moscoviense,LAC-48,http://planetarynames.wr.usgs.gov/Feature/1984
Crater,Franklin,Franklin,1/1/1935,Benjamin; American inventor (1706-1790).,55.9204,47.63968293,38.72879483,"""Crater, craters""",AA,Adopted by IAU,46.49982262,48.84471703,37.77881813,39.69922447,American,North America,Geminus,LAC-27,http://planetarynames.wr.usgs.gov/Feature/2014
Crater,Freud,Freud,1/1/1973,Sigmund; Austrian psychoanalyst (1856-1939).,2.84585,307.6014995,25.79317194,"""Crater, craters""",AA,Adopted by IAU,307.5493832,307.6536198,25.74624825,25.84009743,Austria,Europe,Seleucus,LAC-38,http://planetarynames.wr.usgs.gov/Feature/2022
Crater,Gagarin,Gagarin,1/1/1970,Yury Alekseyevich; Soviet cosmonaut (1934-1968).,261.83,149.35407,-19.65762847,"""Crater, craters""",AA,Adopted by IAU,144.7690372,153.9391041,-23.97493362,-15.34032059,Soviet,Europe,Gagarin,LAC-102,http://planetarynames.wr.usgs.gov/Feature/2054
Crater,Harding,Harding,1/1/1935,Karl Ludwig; German astronomer (1765-1834).,22.5737,288.343829,43.54006368,"""Crater, craters""",AA,Adopted by IAU,287.8039875,288.8220539,43.16792107,43.92315865,Germany,Europe,Lavoisier,LAC-22,http://planetarynames.wr.usgs.gov/Feature/2362
Crater,Hermite,Hermite,1/1/1964,Charles; French mathematician (1822-1901).,108.638,266.6848222,86.16594413,"""Crater, craters""",AA,Adopted by IAU,238.8137493,294.5558987,84.37461281,87.9572773,France,Europe,Peary,LAC-1,http://planetarynames.wr.usgs.gov/Feature/2471
Crater,Harkhebi,Harkhebi,1/1/1979,Egyptian astronomer (c. 300 B.C.).,337.136,98.74485613,40.8704801,"""Crater, craters""",AA,Adopted by IAU,92.93897057,104.5983295,35.34169579,46.35859871,Egypt,Africa,Fabry,LAC-29,http://planetarynames.wr.usgs.gov/Feature/2365
Crater,Heron (Hero),Heron  Hero,1/1/1976,Egyptian inventor (unkn-c. 100 B.C.).,28.1012,119.8770955,0.652547972,"""Crater, craters""",AA,Adopted by IAU,119.4297581,120.3244343,0.23780632,1.061098099,Egypt,Africa,Ostwald,LAC-65,http://planetarynames.wr.usgs.gov/Feature/2476
Crater,Ivan,Ivan,1/1/1976,Russian male name.,3.84405,316.7432428,26.8565054,"""Crater, craters""",AA,Adopted by IAU,316.6721973,316.814291,26.79312325,26.91988945,Russia,Europe,Aristarchus,LAC-39,http://planetarynames.wr.usgs.gov/Feature/2759
Crater,Hertzsprung,Hertzsprung,1/1/1970,Ejnar; Danish astronomer (1873-1967).,536.371,231.3439119,1.365063301,"""Crater, craters""",AA,Adopted by IAU,222.4977283,240.1900997,-7.479124069,10.20925331,Denmark,Europe,Michelson,LAC-71,http://planetarynames.wr.usgs.gov/Feature/2482
Crater,Hind,Hind,1/1/1935,John Russell; British astronomer (1823-1895).,28.5013,7.305811366,-7.917982549,"""Crater, craters""",AA,Adopted by IAU,6.870069504,7.73559761,-8.388175964,-7.467323303,Great Britain,Europe,Ptolemaeus,LAC-77,http://planetarynames.wr.usgs.gov/Feature/2511
Crater,Ina,Ina,1/1/1979,Latin female name.,2.98058,5.304296564,18.65895687,"""Crater, craters""",AA,Adopted by IAU,5.255220413,5.353372574,18.61507988,18.69122124,Latin,Europe,Montes Apenninus,LAC-41,http://planetarynames.wr.usgs.gov/Feature/2680
Crater,Isis,Isis,1/5/1976,Egyptian female first name.,0.609748,27.48196478,18.95308446,"""Crater, craters""",AA,Adopted by IAU,27.47133446,27.49259758,18.94303322,18.96314049,Egypt,Africa,Mare Serenitatis,LAC-42,http://planetarynames.wr.usgs.gov/Feature/2739
Crater,Joliot,Joliot,1/1/1961,Frederic Joliot-Curie; French physicist; Nobel laureate (1900-1958).,172.794,93.3896047,25.78832204,"""Crater, craters""",AA,Adopted by IAU,90.22496605,96.55424309,22.9391346,28.63751411,France,Europe,Joliot,LAC-46,http://planetarynames.wr.usgs.gov/Feature/2839
Crater,Kearons,Kearons,1/1/1970,William Maybrick; American astronomer (1878-1948).,27.9935,247.0815614,-11.58767642,"""Crater, craters""",AA,Adopted by IAU,246.6135807,247.5487118,-12.04118156,-11.18635941,American,North America,Lucretius,LAC-89,http://planetarynames.wr.usgs.gov/Feature/2974
Crater,Karima,Karima,1/1/1976,Arabic female name.,3.0496,102.9819782,-25.93258174,"""Crater, craters""",AA,Adopted by IAU,102.9402523,103.0236988,-25.98106766,-25.88409615,Arabian,Asia,Hilbert,LAC-100,http://planetarynames.wr.usgs.gov/Feature/2928
Crater,Kira,Kira,1/1/1976,Russian female name.,6.8067,132.831645,-17.70729496,"""Crater, craters""",AA,Adopted by IAU,132.7329311,132.9310665,-17.81104851,-17.58935165,Russia,Europe,Gagarin,LAC-102,http://planetarynames.wr.usgs.gov/Feature/3045
Crater,Kirch,Kirch,1/1/1935,Gottfried; German astronomer (1639-1710).,11.7067,354.3777584,39.26518277,"""Crater, craters""",AA,Adopted by IAU,354.1296558,354.6258907,39.08624458,39.46884727,Germany,Europe,Cassini,LAC-25,http://planetarynames.wr.usgs.gov/Feature/3046
Crater,Lacchini,Lacchini,1/1/1970,Giovanni; Italian astronomer (1884-1967).,57.9451,252.170017,41.29444338,"""Crater, craters""",AA,Adopted by IAU,250.8965168,253.4449177,40.36013222,42.28632545,Italy,Europe,Lorentz,LAC-36,http://planetarynames.wr.usgs.gov/Feature/3197
Crater,Kundt,Kundt,1/1/1976,August Adolph Eduard Eberhard; German physicist (1839-1894).,10.3081,348.4324821,-11.56697169,"""Crater, craters""",AA,Adopted by IAU,348.2589893,348.605978,-11.73694229,-11.39700127,Germany,Europe,Montes Riphaeus,LAC-76,http://planetarynames.wr.usgs.gov/Feature/3157
Crater,Mach,Mach,1/1/1970,"""Ernst; Austrian physicist, philosopher (1838-1916).""",174.966,210.7635256,18.12793056,"""Crater, craters""",AA,Adopted by IAU,207.7277126,213.7993412,15.24292946,21.01293373,Austria,Europe,Joule,LAC-52,http://planetarynames.wr.usgs.gov/Feature/3554
Crater,Lorentz,Lorentz,1/1/1970,Hendrik Antoon; Dutch physicist; Nobel laureate (1853-1928).,378.42,262.8130227,34.58861442,"""Crater, craters""",AA,Adopted by IAU,255.4158115,270.1353779,28.55993843,40.61515999,The Netherlands (Dutch),Europe,Lorentz,LAC-36,http://planetarynames.wr.usgs.gov/Feature/3472
Crater,Le Verrier,Le Verrier,1/1/1935,"""Urbain-Jean-Joseph; French astronomer, mathematician (1811-1877).""",20.5223,339.3902015,40.32662307,"""Crater, craters""",AA,Adopted by IAU,338.9462833,339.8342075,40.02414131,40.66788673,France,Europe,Sinus Iridum,LAC-24,http://planetarynames.wr.usgs.gov/Feature/3313
Crater,Nansen,Nansen,1/1/1964,Fridtjof; Norwegian explorer (1861-1930).,116.9,95.38053147,81.1707581,"""Crater, craters""",AA,Adopted by IAU,82.72203636,108.0390301,79.24320412,83.09831429,Norway,Europe,Peary,LAC-1,http://planetarynames.wr.usgs.gov/Feature/4142
Crater,MacMillan,MacMillan,1/1/1976,"""William Duncan; American mathematician, astronomer (1871-1948).""",6.87987,352.1534118,24.20079497,"""Crater, craters""",AA,Adopted by IAU,352.0290394,352.2777843,24.08735466,24.31423759,American,North America,Montes Apenninus,LAC-41,http://planetarynames.wr.usgs.gov/Feature/3559
Crater,Lundmark,Lundmark,1/1/1970,Knut Emil; Swedish astronomer (1889-1958).,103.444,152.5579191,-38.86992921,"""Crater, craters""",AA,Adopted by IAU,150.7143803,154.5762463,-40.57019043,-37.20801163,Sweden,Europe,Jules Verne,LAC-118,http://planetarynames.wr.usgs.gov/Feature/3521
Crater,"Mandel'shtam",Mandel shtam,1/1/1970,Leonid Isaakovich; Soviet physicist (1879-1944).,181.892,162.3877063,5.697680817,"""Crater, craters""",AA,Adopted by IAU,159.3735867,165.4018269,2.698465347,8.696897507,Soviet,Europe,"Mandel'shtam",LAC-67,http://planetarynames.wr.usgs.gov/Feature/3625
Crater,Marth,Marth,1/1/1935,Albert; German astronomer (1828-1897).,6.53708,330.6495166,-31.15665108,"""Crater, craters""",AA,Adopted by IAU,330.5235615,330.7754765,-31.26444054,-31.04886055,Germany,Europe,Pitatus,LAC-94,http://planetarynames.wr.usgs.gov/Feature/3724
Crater,Poincaré,Poincare,1/1/1970,"""Jules Henri; French mathematician, physicist (1854-1912).""",345.988,163.9945338,-56.8622858,"""Crater, craters""",AA,Adopted by IAU,153.517313,174.4717541,-62.56725502,-51.15731621,France,Europe,Hess,LAC-132,http://planetarynames.wr.usgs.gov/Feature/4775
Crater,Stella,Stella,1/1/1976,Latin female name.,0.417311,29.75785488,19.91240762,"""Crater, craters""",AA,Adopted by IAU,29.75053596,29.76517296,19.90552711,19.91929054,Latin,Europe,Mare Serenitatis,LAC-42,http://planetarynames.wr.usgs.gov/Feature/5695
Crater,Schickard,Schickard,1/1/1935,"""Wilhelm; German astronomer, mathematician (1592-1635).""",212.184,304.8948267,-44.37933468,"""Crater, craters""",AA,Adopted by IAU,300.1586285,309.654726,-47.83010674,-40.9282093,Germany,Europe,Schickard,LAC-110,http://planetarynames.wr.usgs.gov/Feature/5368
Crater,Taizo,Taizo,1/1/1979,Japanese male name.,8.18537,2.19605494,24.70240792,"""Crater, craters""",AA,Adopted by IAU,2.164709091,2.229013443,24.565588,24.83734322,Japan,Asia,Montes Apenninus,LAC-41,http://planetarynames.wr.usgs.gov/Feature/5828
Crater,Tikhomirov,Tikhomirov,1/1/1970,Nikolaj Ivanovich; Soviet chemical engineer (1860-1930).,86.4277,161.3329391,24.19884848,"""Crater, craters""",AA,Adopted by IAU,160.0585499,162.6907787,22.7750988,25.62260246,Soviet,Europe,Komarov,LAC-49,http://planetarynames.wr.usgs.gov/Feature/6000
Crater,Van de Graaff,Van de Graaff,1/1/1970,Robert Jemison; American physicist (1901-1967).,240.467,172.0079719,-27.04134553,"""Crater, craters""",AA,Adopted by IAU,168.1530514,175.7760754,-30.38791084,-23.67988777,American,North America,Van de Graaff,LAC-104,http://planetarynames.wr.usgs.gov/Feature/6305
Crater,Vertregt,Vertregt,1/1/1979,Marinus; Dutch chemist (1897-1973).,172.759,171.1202752,-19.29990448,"""Crater, craters""",AA,Adopted by IAU,168.1018925,174.1386623,-22.14852333,-16.45128441,The Netherlands (Dutch),Europe,Van de Graaff,LAC-104,http://planetarynames.wr.usgs.gov/Feature/6362
Crater,Plaskett,Plaskett,1/1/1976,John Stanley; Canadian astronomer (1865-1941).,114.342,176.7146923,81.63323082,"""Crater, craters""",AA,Adopted by IAU,163.6469059,189.7824802,79.74785042,83.51861382,Canada,North America,Peary,LAC-1,http://planetarynames.wr.usgs.gov/Feature/4756
Crater,Rozhdestvenskiy,Rozhdestvenskiy,1/1/1970,Dmitriy Sergeevich; Soviet physicist (1876-1940).,181.151,202.1076391,84.99431201,"""Crater, craters""",AA,Adopted by IAU,166.8304539,233.8446674,82.06627846,87.90880775,Soviet,Europe,Peary,LAC-1,http://planetarynames.wr.usgs.gov/Feature/5207
Crater,Von Kármán,Von Karman,1/1/1970,Theodore; Hungarian-American aeronautical scientist (1881-1963).,186.348,176.2451159,-44.45053657,"""Crater, craters""",AA,Adopted by IAU,171.9389858,180.544733,-47.35357857,-41.54744911,American,North America,Mare Ingenii,LAC-119,http://planetarynames.wr.usgs.gov/Feature/6440
Crater,W. Bond,W  Bond,1/1/1935,William Cranch; American astronomer (1789-1859).,170.532,3.5194755,65.40515474,"""Crater, craters""",AA,Adopted by IAU,357.4623547,369.7204603,62.66103554,68.1462307,American,North America,Anaxagoras,LAC-3,http://planetarynames.wr.usgs.gov/Feature/6466
Crater,Ryder,Ryder,1/1/2006,"""Graham; United Kingdom-born, American geologist (1949-2002).""",15.5485,143.2994004,-43.87471194,"""Crater, craters""",AA,Adopted by IAU,142.9520206,143.6471157,-44.09362602,-43.65578079,United States,North America,Jules Verne,LAC-118,http://planetarynames.wr.usgs.gov/Feature/6956
Crater,Abel,Abel,1/1/1964,Niels Henrik; Norwegian mathematician (1802-1829).,137.349,85.77621853,-34.62570034,"""Crater, craters""",AA,Adopted by IAU,83.432024,88.20991325,-36.77178764,-32.54476166,Norway,Europe,Mare Australe,LAC-116,http://planetarynames.wr.usgs.gov/Feature/12
Crater,Bi Sheng,Bi Sheng,8/2/2010,Chinese inventor (c. 990-1051).,55.271,148.4586566,78.34500554,"""Crater, craters""",AA,Adopted by IAU,143.831358,152.840704,77.46344948,79.2862072,China,Asia,Karpinskij,LAC-7,http://planetarynames.wr.usgs.gov/Feature/14748
Crater,Abbot,Abbot,1/1/1973,Charles Greeley; American astrophysicist (1872-1973).,10.4043,54.74305893,5.556162263,"""Crater, craters""",AA,Adopted by IAU,54.57070732,54.91541481,5.384607315,5.727720261,American,North America,Mare Undarum,LAC-62,http://planetarynames.wr.usgs.gov/Feature/10
Crater,Abenezra,Abenezra,1/1/1935,"""Abraham ben Meir Ibn Ezra; Spanish mathematician, astronomer (1092-1164/1167).""",43.1887,11.89065686,-20.99356374,"""Crater, craters""",AA,Adopted by IAU,11.12781715,12.65346718,-21.70570946,-20.28141785,Spain,Europe,Rupes Altai,LAC-96,http://planetarynames.wr.usgs.gov/Feature/14
Crater,Cai Lun,Cai Lun,8/2/2010,Chinese inventor (c. 57-121).,44.8908,113.6638513,80.11655087,"""Crater, craters""",AA,Adopted by IAU,109.3513012,117.976469,79.3763485,80.8567524,China,Asia,Peary,LAC-1,http://planetarynames.wr.usgs.gov/Feature/14749
Crater,Abetti,Abetti,1/1/1976,Antonio; Italian astronomer (1846-1928); Giorgio; Italian astronomer (1882-1982).,1.59879,27.81572428,20.11272736,"""Crater, craters""",AA,Adopted by IAU,27.78765297,27.8438015,20.08636665,20.1390934,Italy,Europe,Mare Serenitatis,LAC-42,http://planetarynames.wr.usgs.gov/Feature/16
Crater,Zhang Yuzhe,Zhang Yuzhe,8/2/2010,Chinese astronomer (1902-1986).,38.0043,222.1794968,-69.06986031,"""Crater, craters""",AA,Adopted by IAU,220.4267063,223.9299374,-69.60673141,-68.53297806,China,Asia,Zeeman,LAC-142,http://planetarynames.wr.usgs.gov/Feature/14750
Crater,Abbe,Abbe,1/1/1970,"""Ernst Karl; German optician, physicist, astronomer (1840-1905).""",63.976,174.774969,-57.57548235,"""Crater, craters""",AA,Adopted by IAU,172.8134708,176.7363338,-58.63036919,-56.52059174,Germany,Europe,Hess,LAC-132,http://planetarynames.wr.usgs.gov/Feature/9
Crater,Abul Wáfa,Abul Wafa,1/1/1970,"""Abū al-Wafā al-Būzajāni; Persian mathematician, astronomer (940-998).""",54.1787,116.6306445,0.962556434,"""Crater, craters""",AA,Adopted by IAU,115.7371731,117.5241337,0.069181442,1.85593605,Persian,Asia,Ostwald,LAC-65,http://planetarynames.wr.usgs.gov/Feature/22
Crater,Alfraganus,Alfraganus,1/1/1935,"""Al-Fargani, Abu'l-'Abbās Ahmad Ibn Muhammad Ibn Kathīr; Persian astronomer (unkn-c. 840).""",20.5207,18.97061699,-5.421661109,"""Crater, craters""",AA,Adopted by IAU,18.63072014,19.31051445,-5.760025024,-5.083295822,Persian,Asia,Theophilus,LAC-78,http://planetarynames.wr.usgs.gov/Feature/181
Crater,Aloha,Aloha,1/1/1976,Hawaiian female first name.,2.54796,306.1204099,29.79260888,"""Crater, craters""",AA,Adopted by IAU,306.0720081,306.1688137,29.750597,29.83462334,Hawaii,Oceania,Seleucus,LAC-38,http://planetarynames.wr.usgs.gov/Feature/199
Crater,Alhazen,Alhazen,1/1/1935,Abū Ali Al-Hasan Ibn Al Haitham; Iraqi mathematician (987-1038).,34.648,71.82789839,15.91478344,"""Crater, craters""",AA,Adopted by IAU,71.23381996,72.42197609,15.34347343,16.48609352,Iraq,Asia,Neper,LAC-63,http://planetarynames.wr.usgs.gov/Feature/183
Crater,Aliacensis,Aliacensis,1/1/1935,"""D'Ailly, Pierre; French geographer (1350-1420).""",79.6473,5.130767469,-30.5951935,"""Crater, craters""",AA,Adopted by IAU,3.604578018,6.656938553,-31.90860176,-29.28178406,France,Europe,Purbach,LAC-95,http://planetarynames.wr.usgs.gov/Feature/185
Crater,Almanon,Almanon,1/1/1935,Abdalla Al Mamun; Persian astronomer (786-833).,47.7583,15.13507623,-16.84502815,"""Crater, craters""",AA,Adopted by IAU,14.31229973,15.9578495,-17.63253021,-16.05752563,Persian,Asia,Rupes Altai,LAC-96,http://planetarynames.wr.usgs.gov/Feature/196
Crater,Alpetragius,Alpetragius,1/1/1935,"""Al-Bitrūjī Al-Ishbīlī, Abū Ishāq; Spanish astronomer (unkn-c. 1100).""",40.0233,355.4896007,-16.04797245,"""Crater, craters""",AA,Adopted by IAU,354.8028965,356.176321,-16.70792389,-15.38801956,Morocco,Africa,Purbach,LAC-95,http://planetarynames.wr.usgs.gov/Feature/202
Crater,Alphonsus,Alphonsus,1/1/1935,Alfonso X (El Sabio); Spanish astronomer (1221-1284).,110.54,357.1537278,-13.38793657,"""Crater, craters""",AA,Adopted by IAU,355.2802105,359.0270901,-15.21086121,-11.56501198,Spain,Europe,Ptolemaeus,LAC-77,http://planetarynames.wr.usgs.gov/Feature/206
Crater,Alter,Alter,1/1/1970,"""Dinsmore; American astronomer, meteorologist (1888-1968).""",64.733,252.2030967,18.74008917,"""Crater, craters""",AA,Adopted by IAU,251.0763302,253.3298855,17.67267036,19.80750847,American,North America,Robertson,LAC-54,http://planetarynames.wr.usgs.gov/Feature/208
Crater,Artemis,Artemis,1/5/1976,Greek female first name.,2.28156,334.6448139,25.03263344,"""Crater, craters""",AA,Adopted by IAU,334.6032963,334.6863346,24.99501228,25.07025337,Greek,Europe,Timocharis,LAC-40,http://planetarynames.wr.usgs.gov/Feature/399
Crater,"Artem'ev",Artem ev,1/1/1970,Vladimir Andreevich; Soviet rocket scientist (1885-1962).,66.391,214.7778308,10.39530617,"""Crater, craters""",AA,Adopted by IAU,213.6648273,215.8907185,9.30055809,11.49005699,Soviet,Europe,Kibalchich,LAC-70,http://planetarynames.wr.usgs.gov/Feature/402
Crater,Banting,Banting,1/1/1973,Sir Frederick Grant; Canadian doctor; Nobel laureate (1891-1941).,5.14992,16.42841824,26.58135072,"""Crater, craters""",AA,Adopted by IAU,16.33347893,16.5233593,26.49643517,26.6662693,Canada,North America,Mare Serenitatis,LAC-42,http://planetarynames.wr.usgs.gov/Feature/597
Crater,Ameghino,Ameghino,1/1/1976,Fiorino (or Florentino); Argentine paleontologist and anthropologist (1854-1911).,9.19562,57.0370087,3.299452768,"""Crater, craters""",AA,Adopted by IAU,56.88751411,57.19126701,3.147829056,3.451078415,Argentina,South and Central America,Mare Undarum,LAC-62,http://planetarynames.wr.usgs.gov/Feature/223
Crater,Amici,Amici,1/1/1970,"""Giovanni Battista; Italian astronomer, optician (1786-1863).""",52.0325,187.7729833,-10.06203476,"""Crater, craters""",AA,Adopted by IAU,186.9081554,188.6502972,-10.92807579,-9.212100983,Italy,Europe,Icarus,LAC-86,http://planetarynames.wr.usgs.gov/Feature/232
Crater,Ammonius,Ammonius,1/1/1976,Greek philosopher (unkn.-c. A.D. 517-526).,8.55194,359.1739707,-8.520919451,"""Crater, craters""",AA,Adopted by IAU,359.0313816,359.3165646,-8.661931992,-8.379905701,Greek,Europe,Ptolemaeus,LAC-77,http://planetarynames.wr.usgs.gov/Feature/236
Crater,Ball,Ball,1/1/1935,William; British astronomer (unkn-1690).,40.3113,351.6057945,-35.92278762,"""Crater, craters""",AA,Adopted by IAU,350.7850323,352.4265766,-36.58748436,-35.25809097,Great Britain,Europe,Tycho,LAC-112,http://planetarynames.wr.usgs.gov/Feature/579
Crater,Balmer,Balmer,1/1/1964,"""Johann Jakob; Swiss mathematician, physician (1825-1898).""",136.296,70.22470569,-20.27145378,"""Crater, craters""",AA,Adopted by IAU,67.83531761,72.6145153,-22.53532791,-18.03941727,Switzerland,Europe,Humboldt,LAC-99,http://planetarynames.wr.usgs.gov/Feature/580
Crater,Banachiewicz,Banachiewicz,1/1/1964,"""Tadeusz; Polish astronomer, mathematician (1882-1954).""",99.0941,80.00967514,5.276973055,"""Crater, craters""",AA,Adopted by IAU,78.36886787,81.65055656,3.642858505,6.911088943,Poland,Europe,Neper,LAC-63,http://planetarynames.wr.usgs.gov/Feature/592
Crater,Bancroft,Bancroft,1/1/1976,Wilder Dwight; American chemist (1867-1953).,12.498,353.566052,28.0659089,"""Crater, craters""",AA,Adopted by IAU,353.33251,353.799593,27.85983086,28.27198982,American,North America,Montes Apenninus,LAC-41,http://planetarynames.wr.usgs.gov/Feature/594
Crater,Barbier,Barbier,1/1/1970,Daniel; French astronomer (1907-1965).,65.3766,157.933664,-23.85027046,"""Crater, craters""",AA,Adopted by IAU,156.7534466,159.1138935,-24.92830658,-22.77223396,France,Europe,"O'Day",LAC-103,http://planetarynames.wr.usgs.gov/Feature/605
Crater,Barkla,Barkla,1/1/1979,Charles Glover; British physicist; Nobel laureate (1877-1944).,40.8976,67.21873938,-10.66797747,"""Crater, craters""",AA,Adopted by IAU,66.53188133,67.90421867,-11.34287262,-9.994132996,Great Britain,Europe,Langrenus,LAC-80,http://planetarynames.wr.usgs.gov/Feature/606
Crater,Louville,Louville,1/1/1935,"""Jacques D'Allonville, Chevalier de Louville; French astronomer, mathematician (1671-1732).""",34.8134,313.9604896,44.12477235,"""Crater, craters""",AA,Adopted by IAU,313.30023,314.6350689,43.57098961,44.67821312,France,Europe,Rümker,LAC-23,http://planetarynames.wr.usgs.gov/Feature/3486
Crater,Arago,Arago,1/1/1935,Dominique Francois Jean; French astronomer (1786-1853).,25.509,21.42610362,6.148705737,"""Crater, craters""",AA,Adopted by IAU,21.00305367,21.8491497,5.728086472,6.569326401,France,Europe,Julius Caesar,LAC-60,http://planetarynames.wr.usgs.gov/Feature/337
Crater,Aratus,Aratus,1/1/1935,Aratus of Soli; Greek astronomer (c. 310-240/239 B.C.).,10.233,4.505191582,23.57931299,"""Crater, craters""",AA,Adopted by IAU,4.321111679,4.689271927,23.41058159,23.74804497,Greek,Europe,Montes Apenninus,LAC-41,http://planetarynames.wr.usgs.gov/Feature/344
Crater,Archimedes,Archimedes,1/1/1935,"""Greek physicist, mathematician (c. 287-212 B.C.).""",81.0417,356.0069061,29.71723111,"""Crater, craters""",AA,Adopted by IAU,354.4682102,357.5455494,28.3808651,31.05360222,Greek,Europe,Montes Apenninus,LAC-41,http://planetarynames.wr.usgs.gov/Feature/350
Crater,Archytas,Archytas,1/1/1935,Greek mathematician (428-347 B.C. ?).,31.9497,4.992482317,58.86620114,"""Crater, craters""",AA,Adopted by IAU,3.986272812,5.996961594,58.36980247,59.36257362,Greek,Europe,Plato,LAC-12,http://planetarynames.wr.usgs.gov/Feature/351
Crater,Barnard,Barnard,1/1/1964,Edward Emerson; American astronomer (1857-1923).,115.735,85.94888107,-29.78829434,"""Crater, craters""",AA,Adopted by IAU,83.75367546,88.14394188,-31.69691658,-27.8796711,American,North America,Humboldt,LAC-99,http://planetarynames.wr.usgs.gov/Feature/608
Crater,Barocius,Barocius,1/1/1935,Francesco; Italian mathematician (1537-1604).,82.7235,16.80582175,-44.97905506,"""Crater, craters""",AA,Adopted by IAU,14.8733387,18.73856544,-46.34311104,-43.61499596,Italy,Europe,Maurolycus,LAC-113,http://planetarynames.wr.usgs.gov/Feature/613
Crater,Barringer,Barringer,1/1/1970,"""Daniel Moreau; American engineer, geologist (1860-1929).""",66.8931,209.5693814,-28.21806202,"""Crater, craters""",AA,Adopted by IAU,208.3124981,210.8155766,-29.32555008,-27.11945152,American,North America,Mohorovicic,LAC-105,http://planetarynames.wr.usgs.gov/Feature/616
Crater,Barrow,Barrow,1/1/1935,Isaac; British mathematician (1630-1677).,93.8209,7.586017254,71.28440369,"""Crater, craters""",AA,Adopted by IAU,2.763307571,12.40873146,69.73739433,72.83140755,Great Britain,Europe,Anaxagoras,LAC-3,http://planetarynames.wr.usgs.gov/Feature/617
Crater,Bartels,Bartels,1/1/1970,Julius; German geophysicist (1899-1964).,54.951,270.154789,24.5064977,"""Crater, craters""",AA,Adopted by IAU,269.1590633,271.1505718,23.6003933,25.41260338,Germany,Europe,Russell,LAC-37,http://planetarynames.wr.usgs.gov/Feature/621
Crater,Bouguer,Bouguer,1/1/1935,Pierre; French hydrographer (1698-1758).,22.2346,324.1772148,52.32243569,"""Crater, craters""",AA,Adopted by IAU,323.5774021,324.7770329,51.95580864,52.68906593,France,Europe,J. Herschel,LAC-11,http://planetarynames.wr.usgs.gov/Feature/839
Crater,Boss,Boss,1/1/1964,Lewis; American astronomer (1846-1912).,50.2004,88.67992523,45.74796775,"""Crater, craters""",AA,Adopted by IAU,87.56790352,89.79289818,44.92272377,46.57320595,American,North America,Fabry,LAC-29,http://planetarynames.wr.usgs.gov/Feature/836
Crater,Bonpland,Bonpland,1/1/1935,Aimé-Jacques-Alexandre; French botanist (1773-1858).,59.2453,342.6658676,-8.375549139,"""Crater, craters""",AA,Adopted by IAU,341.6784573,343.6532345,-9.352457047,-7.398639679,France,Europe,Montes Riphaeus,LAC-76,http://planetarynames.wr.usgs.gov/Feature/817
Crater,Argelander,Argelander,1/1/1935,Friedrich Wilhelm August; German astronomer (1799-1875).,33.716,5.801103927,-16.54928958,"""Crater, craters""",AA,Adopted by IAU,5.221143723,6.381059647,-17.10523224,-15.99334526,Germany,Europe,Purbach,LAC-95,http://planetarynames.wr.usgs.gov/Feature/363
Crater,Ariadaeus,Ariadaeus,1/1/1935,Philip III of Macedonia; chronologer (c. 358-317 B.C.).,10.401,17.27627758,4.554940411,"""Crater, craters""",AA,Adopted by IAU,17.10423851,17.44831657,4.383440018,4.726442337,Babylon,Asia,Julius Caesar,LAC-60,http://planetarynames.wr.usgs.gov/Feature/373
Crater,Aristarchus,Aristarchus,1/1/1935,Greek astronomer (310-230 B.C. ?).,39.9945,312.5098748,23.72988232,"""Crater, craters""",AA,Adopted by IAU,311.7894611,313.2303143,23.07040977,24.38935661,Greek,Europe,Aristarchus,LAC-39,http://planetarynames.wr.usgs.gov/Feature/380
Crater,Aldrin,Aldrin,1/1/1970,"""Edwin Eugene, Jr. (""""Buzz""""); American astronaut (1930-Live).""",2.80139,22.08994626,1.405850549,"""Crater, craters""",AA,Adopted by IAU,22.04374123,22.13615227,1.359659195,1.452043533,American,North America,Julius Caesar,LAC-60,http://planetarynames.wr.usgs.gov/Feature/172
Crater,Alan,Alan,1/1/1976,Irish male name.,1.43526,353.8290858,-10.93305635,"""Crater, craters""",AA,Adopted by IAU,353.8049831,353.8531895,-10.95672226,-10.9093895,Ireland,Europe,Ptolemaeus,LAC-77,http://planetarynames.wr.usgs.gov/Feature/156
Crater,Aristoteles,Aristoteles,1/1/1935,"""Greek astronomer, philosopher (383-322 B.C.).""",87.5669,17.32003158,50.24304964,"""Crater, craters""",AA,Adopted by IAU,15.06312752,19.57700157,48.79907036,51.68702888,Greek,Europe,Aristoteles,LAC-13,http://planetarynames.wr.usgs.gov/Feature/382
Crater,Armstrong,Armstrong,1/1/1970,Neil Alden; American astronaut (1930-2012).,4.21448,24.94371328,1.353517462,"""Crater, craters""",AA,Adopted by IAU,24.87420082,25.01322746,1.284025192,1.423009872,American,North America,Julius Caesar,LAC-60,http://planetarynames.wr.usgs.gov/Feature/386
Crater,Aristillus,Aristillus,1/1/1935,Greek astronomer (fl. c. 280 B.C.).,54.3711,1.207547339,33.88083117,"""Crater, craters""",AA,Adopted by IAU,0.127637863,2.28745842,32.98430824,34.77735329,Greek,Europe,Cassini,LAC-25,http://planetarynames.wr.usgs.gov/Feature/381
Crater,Armiński,Arminski,1/1/1976,Franciszek; Polish astronomer (1789-1848). (Spelling changed from Armínski.),26.7602,154.2162217,-16.36276088,"""Crater, craters""",AA,Adopted by IAU,153.7563839,154.6760616,-16.80400848,-15.9215126,Poland,Europe,"O'Day",LAC-103,http://planetarynames.wr.usgs.gov/Feature/385
Crater,Alekhin,Alekhin,1/1/1970,"""Nikolaj Pavlovich; Soviet rocket designer, engineer (1913-1964).""",74.8167,228.1476073,-67.94404621,"""Crater, craters""",AA,Adopted by IAU,224.8622723,231.4327145,-69.17772102,-66.7103672,Soviet,Europe,Zeeman,LAC-142,http://planetarynames.wr.usgs.gov/Feature/174
Crater,Alexander,Alexander,1/1/1935,"""Alexander the Great, of Macedon; Greek geographer (356-323 B.C.).""",94.8028,13.69315438,40.25152147,"""Crater, craters""",AA,Adopted by IAU,11.64715767,15.7355442,38.9893055,41.51365089,Greek,Europe,Eudoxus,LAC-26,http://planetarynames.wr.usgs.gov/Feature/177
Crater,Abulfeda,Abulfeda,1/1/1935,Ismail Ibn Abū al-Fidā; Syrian geographer (1273-1331).,62.2345,13.91029817,-13.86508699,"""Crater, craters""",AA,Adopted by IAU,12.85334587,14.9672718,-14.89131355,-12.83885956,Syria,Asia,Theophilus,LAC-78,http://planetarynames.wr.usgs.gov/Feature/23
Crater,Acosta,Acosta,1/1/1976,"""Cristobal; Portuguese doctor, natural historian (1515-1580).""",13.0615,60.13947307,-5.645305088,"""Crater, craters""",AA,Adopted by IAU,59.92305183,60.35589409,-5.860675812,-5.429933548,Portugal,Europe,Langrenus,LAC-80,http://planetarynames.wr.usgs.gov/Feature/40
Crater,Liouville,Liouville,1/1/1973,Joseph; French mathematician (1809-1882).,16.1213,73.5658785,2.727833219,"""Crater, craters""",AA,Adopted by IAU,73.299757,73.83200264,2.462011337,2.993658066,France,Europe,Neper,LAC-63,http://planetarynames.wr.usgs.gov/Feature/3416
Crater,Adams,Adams,1/1/1970,John Couch; British astronomer (1819-1892); Charles Hitchcock; American astronomer (1868-1951); Walter Sydney; American astronomer (1876-1956).,63.2702,68.38690154,-31.89163417,"""Crater, craters""",AA,Adopted by IAU,67.15876579,69.61503792,-32.93493462,-30.84833336,American,North America,Petavius,LAC-98,http://planetarynames.wr.usgs.gov/Feature/47
Crater,Landsteiner,Landsteiner,1/1/1976,Karl; Austrian-American pathologist; Nobel laureate (1868-1943).,6.11065,345.2103177,31.29831503,"""Crater, craters""",AA,Adopted by IAU,345.0924015,345.3282375,31.19755745,31.39907265,Austria,Europe,Timocharis,LAC-40,http://planetarynames.wr.usgs.gov/Feature/3267
Crater,Agatharchides,Agatharchides,1/1/1935,Agatharchides of Cnidos; Greek geographer (c. 116 B.C.).,51.9832,328.8853814,-19.85370098,"""Crater, craters""",AA,Adopted by IAU,327.9740772,329.7966557,-20.71086502,-18.99653435,Greek,Europe,Mare Humorum,LAC-93,http://planetarynames.wr.usgs.gov/Feature/82
Crater,Agrippa,Agrippa,1/1/1935,Greek astronomer (unkn-fl. A.D. 92).,43.7467,10.4741347,4.096399425,"""Crater, craters""",AA,Adopted by IAU,9.750963211,11.19729042,3.375047684,4.817754745,Greek,Europe,Julius Caesar,LAC-60,http://planetarynames.wr.usgs.gov/Feature/92
Crater,Airy,Airy,1/1/1935,George Biddell; British astronomer (1801-1892).,38.8999,5.614857984,-18.14162802,"""Crater, craters""",AA,Adopted by IAU,4.939809799,6.289899826,-18.78305244,-17.50020218,Great Britain,Europe,Purbach,LAC-95,http://planetarynames.wr.usgs.gov/Feature/113
Crater,Al-Bakri,Al Bakri,1/1/1976,Abū Ubayd Abdallāh Ibn abd al-Azīz Ibn Muhammad; Spanish-Arab geographer (1010-1094).,12.2124,20.24511093,14.33539214,"""Crater, craters""",AA,Adopted by IAU,20.0372715,20.45295143,14.13402367,14.53676414,Spain,Europe,Julius Caesar,LAC-60,http://planetarynames.wr.usgs.gov/Feature/145
Crater,Aitken,Aitken,1/1/1970,Robert Grant; American astronomer (1864-1951).,129.693,172.9582571,-16.44298159,"""Crater, craters""",AA,Adopted by IAU,170.728651,175.1878643,-18.58147621,-14.30448723,American,North America,Van de Graaff,LAC-104,http://planetarynames.wr.usgs.gov/Feature/119
Crater,Akis,Akis,1/1/1976,Greek female name.,2.28179,328.2405999,20.01086218,"""Crater, craters""",AA,Adopted by IAU,328.2005634,328.2806416,19.97323799,20.04848671,Greek,Europe,Aristarchus,LAC-39,http://planetarynames.wr.usgs.gov/Feature/133
Crater,Al-Khwarizmi,Al Khwarizmi,1/1/1973,"Abū Ja'far Muhammad Ibn Mūsā; Iraqi mathematician (unkn-after 847).",56.2527,107.0061751,7.021853472,"""Crater, craters""",AA,Adopted by IAU,106.0717487,107.9406033,6.094305038,7.949403763,Iraq,Asia,Babcock,LAC-64,http://planetarynames.wr.usgs.gov/Feature/149
Crater,Al-Marrakushi,Al Marrakushi,1/1/1976,"""Abū `Ali al-Hasan Ibn `Ali al-Marrakushi; Moroccan astronomer, mathematician (fl. c. A.D. 1281/1282).""",8.56535,55.77026628,-10.44673834,"""Crater, craters""",AA,Adopted by IAU,55.62663841,55.91389656,-10.58797073,-10.30550385,Morocco,Africa,Langrenus,LAC-80,http://planetarynames.wr.usgs.gov/Feature/150
Crater,Al-Biruni,Al Biruni,1/1/1970,"""Abū ar-Rayhān Muhammad ibn Ahmad al-Birūnī; Persian astronomer, mathematician, geographer (973-1048).""",80.4102,92.61617629,18.07129404,"""Crater, craters""",AA,Adopted by IAU,91.22118568,94.01117134,16.74541664,19.39717674,Persian,Asia,Joliot,LAC-46,http://planetarynames.wr.usgs.gov/Feature/146
Crater,Boris,Boris,1/1/1979,Russian male name.,1.72605,326.4993259,30.53390715,"""Crater, craters""",AA,Adopted by IAU,326.4662876,326.5323658,30.50544548,30.56236839,Russia,Europe,Aristarchus,LAC-39,http://planetarynames.wr.usgs.gov/Feature/826
Crater,Albategnius,Albategnius,1/1/1935,"""Muhammed Ben Geber Al-Battānī; Arab astronomer, mathematician (c. 858-929).""",130.84,4.009197111,-11.24002569,"""Crater, craters""",AA,Adopted by IAU,1.804300308,6.203332901,-13.40504456,-9.089321136,Iraq,Asia,Ptolemaeus,LAC-77,http://planetarynames.wr.usgs.gov/Feature/162
Crater,Alden,Alden,1/1/1970,Harold Lee; American astronomer (1890-1964).,111.437,111.1141339,-23.50840113,"""Crater, craters""",AA,Adopted by IAU,109.1103764,113.1178493,-25.34609795,-21.67070389,American,North America,Fermi,LAC-101,http://planetarynames.wr.usgs.gov/Feature/170
Crater,Arnold,Arnold,1/1/1935,Christoph; German astronomer (1650-1695).,93.1332,35.82862868,66.98462413,"""Crater, craters""",AA,Adopted by IAU,32.00644112,39.87708855,65.46299934,68.53440666,Germany,Europe,Meton,LAC-4,http://planetarynames.wr.usgs.gov/Feature/387
Crater,Krogh,Krogh,1/1/1976,"""Schack August Steenberg; Danish zoologist, physiologist; Nobel laureate (1874-1949).""",19.1723,65.68909278,9.412724257,"""Crater, craters""",AA,Adopted by IAU,65.36865044,66.00953865,9.096593857,9.72885704,Denmark,Europe,Mare Undarum,LAC-62,http://planetarynames.wr.usgs.gov/Feature/3124
Crater,Alder,Alder,1/1/1979,Kurt; German organic chemist; Nobel laureate (1902-1958).,82.1233,182.1162754,-48.62553375,"""Crater, craters""",AA,Adopted by IAU,180.0843945,184.1511135,-49.93986511,-47.31117058,Germany,Europe,Hess,LAC-132,http://planetarynames.wr.usgs.gov/Feature/171
Crater,Arrhenius,Arrhenius,1/1/1970,Svante August; Swedish chemist; Nobel laureate (1859-1927).,40.93,268.5463398,-55.58369436,"""Crater, craters""",AA,Adopted by IAU,267.3526402,269.740015,-56.25859642,-54.9087925,Sweden,Europe,Arrhenius,LAC-135,http://planetarynames.wr.usgs.gov/Feature/391
Crater,Artamonov,Artamonov,1/1/1970,Nikolaj N.; Soviet rocket scientist (1906-1965).,62.4458,103.7853211,25.43866299,"""Crater, craters""",AA,Adopted by IAU,102.6441021,104.926569,24.40896034,26.46836662,Soviet,Europe,Joliot,LAC-46,http://planetarynames.wr.usgs.gov/Feature/398
Crater,Amontons,Amontons,1/1/1976,Guillaume; French physicist (1663-1705).,2.46726,46.77793143,-5.337212093,"""Crater, craters""",AA,Adopted by IAU,46.7370739,46.81879234,-5.377893448,-5.29652977,France,Europe,Colombo,LAC-79,http://planetarynames.wr.usgs.gov/Feature/240
Crater,Amundsen,Amundsen,1/1/1964,Roald Engelbregt Gravning; Norwegian explorer (1872-1928).,103.395,83.06914954,-84.43979544,"""Crater, craters""",AA,Adopted by IAU,67.60187721,104.116045,-86.25605774,-82.8461647,Norway,Europe,Amundsen,LAC-144,http://planetarynames.wr.usgs.gov/Feature/247
Crater,Anaximander,Anaximander,1/1/1935,Greek astronomer (c. 611-547 B.C.).,68.7114,308.5583169,66.96707644,"""Crater, craters""",AA,Adopted by IAU,305.661623,311.4550228,65.83403206,68.10012627,Greek,Europe,Carpenter,LAC-2,http://planetarynames.wr.usgs.gov/Feature/254
Crater,Anaxagoras,Anaxagoras,1/1/1935,Greek astronomer (500-428 B.C.).,51.8959,349.8287506,73.48099922,"""Crater, craters""",AA,Adopted by IAU,346.8113804,352.846159,72.62529182,74.33670998,Greek,Europe,Anaxagoras,LAC-3,http://planetarynames.wr.usgs.gov/Feature/252
Crater,Ango,Ango,1/1/1976,African male name.,0.870772,327.6620489,20.47754589,"""Crater, craters""",AA,Adopted by IAU,327.6467266,327.6773739,20.46319008,20.49190331,.,.,Aristarchus,LAC-39,http://planetarynames.wr.usgs.gov/Feature/269
Crater,Anaximenes,Anaximenes,1/1/1935,Greek astronomer (585-528 B.C.).,81.1167,315.0174978,72.48502199,"""Crater, craters""",AA,Adopted by IAU,310.5753155,319.459734,71.14737511,73.82266808,Greek,Europe,Carpenter,LAC-2,http://planetarynames.wr.usgs.gov/Feature/255
Crater,Anders,Anders,1/1/1970,William Alison; American astronaut (1933-Live).,41.3265,216.699002,-41.31456509,"""Crater, craters""",AA,Adopted by IAU,215.7914753,217.6065311,-41.9960022,-40.63312721,American,North America,Apollo,LAC-121,http://planetarynames.wr.usgs.gov/Feature/259
Crater,Anderson,Anderson,1/1/1970,John August; American astronomer (1876-1959).,105.328,170.7942447,15.4992991,"""Crater, craters""",AA,Adopted by IAU,168.989912,172.5983601,13.76241493,17.23618507,American,North America,Sharonov,LAC-68,http://planetarynames.wr.usgs.gov/Feature/260
Crater,Andersson,Andersson,1/1/1985,Leif Erland; American astronomer (1943-1979).,13.4195,264.5372438,-49.94975365,"""Crater, craters""",AA,Adopted by IAU,264.1924229,264.8804874,-50.17127228,-49.72872353,American,North America,Arrhenius,LAC-135,http://planetarynames.wr.usgs.gov/Feature/261
Crater,Andronov,Andronov,1/1/1976,Aleksandr Aleksandrovich; Soviet physicist (1901-1952).,16.5674,146.1082148,-22.68069568,"""Crater, craters""",AA,Adopted by IAU,145.8119335,146.4044971,-22.95387459,-22.40751457,Soviet,Europe,Gagarin,LAC-102,http://planetarynames.wr.usgs.gov/Feature/265
Crater,Anděl,Andel,1/1/1935,Karel; Czechoslovakian astronomer (1884-1948).,32.9312,12.38345369,-10.41412846,"""Crater, craters""",AA,Adopted by IAU,11.83136177,12.93554878,-10.95713425,-9.871120453,Czechoslovakia,Europe,Theophilus,LAC-78,http://planetarynames.wr.usgs.gov/Feature/267
Crater,Angström,Angstrom,1/1/1935,Anders Jonas; Swedish physicist (1814-1874).,9.55012,318.3325651,29.89568435,"""Crater, craters""",AA,Adopted by IAU,318.1509266,318.5142078,29.73821449,30.0531559,Sweden,Europe,Aristarchus,LAC-39,http://planetarynames.wr.usgs.gov/Feature/272
Crater,Ann,Ann,1/1/1976,Hebrew female name.,2.11887,359.9459754,25.10944204,"""Crater, craters""",AA,Adopted by IAU,359.908289,359.9836597,25.0916996,25.12718773,Hebrew,Asia,Montes Apenninus,LAC-41,http://planetarynames.wr.usgs.gov/Feature/280
Crater,Annegrit,Annegrit,1/1/1976,German female name.,1.28604,334.3635375,29.4308553,"""Crater, craters""",AA,Adopted by IAU,334.3391972,334.3878803,29.4096508,29.45206261,Germany,Europe,Timocharis,LAC-40,http://planetarynames.wr.usgs.gov/Feature/283
Crater,Ansgarius,Ansgarius,1/1/1935,St. Ansgar; German theologian (801-864).,91.4188,79.72310376,-12.92350699,"""Crater, craters""",AA,Adopted by IAU,78.17653084,81.26967812,-14.4309063,-11.41610718,Germany,Europe,Ansgarius,LAC-81,http://planetarynames.wr.usgs.gov/Feature/289
Crater,Anville,Anville,1/1/1976,Jean-Baptiste Bourguignon; French cartographer (1697-1782).,10.2573,49.50799565,1.842802323,"""Crater, craters""",AA,Adopted by IAU,49.33877373,49.67721748,1.673669815,2.01193428,France,Europe,Taruntius,LAC-61,http://planetarynames.wr.usgs.gov/Feature/307
Crater,Antoniadi,Antoniadi,1/1/1970,Eugène Michael; Turkish-born French astronomer (1870-1944).,137.917,186.9415237,-69.3026425,"""Crater, craters""",AA,Adopted by IAU,180.5165997,193.3660641,-71.57724571,-67.0280323,France,Europe,Minnaert,LAC-141,http://planetarynames.wr.usgs.gov/Feature/296
Crater,Apianus,Apianus,1/1/1935,"""Bienewitz, Peter; German mathematician, astronomer (1495-1552).""",63.4398,7.868232579,-26.96252583,"""Crater, craters""",AA,Adopted by IAU,6.69377327,9.04268837,-28.00860405,-25.91644669,Germany,Europe,Purbach,LAC-95,http://planetarynames.wr.usgs.gov/Feature/320
Crater,Apollo,Apollo,1/1/1970,Named to honor Apollo missions.,524.232,208.522273,-35.68740661,"""Crater, craters""",AA,Adopted by IAU,197.9256878,219.4171124,-44.19234085,-28.11938286,Greek,Europe,Apollo,LAC-121,http://planetarynames.wr.usgs.gov/Feature/326
Crater,Anuchin,Anuchin,1/1/1979,Dimitrii Nikolaevich; Russian geographer (1843-1923).,62.1396,101.6597408,-48.85304878,"""Crater, craters""",AA,Adopted by IAU,100.1242886,103.1909695,-49.87185669,-47.835186,Russia,Europe,Fechner,LAC-130,http://planetarynames.wr.usgs.gov/Feature/304
Crater,Asada,Asada,1/1/1976,Goryu; Japanese astronomer (1734-1799).,12.3729,49.90176088,7.246645709,"""Crater, craters""",AA,Adopted by IAU,49.69610405,50.10741997,7.042631149,7.450662613,Japan,Asia,Taruntius,LAC-61,http://planetarynames.wr.usgs.gov/Feature/413
Crater,Apollonius,Apollonius,1/1/1935,Apollonius of Perga; Greek mathematician (c. 262-190 B.C.).,50.6614,60.96480535,4.505306511,"""Crater, craters""",AA,Adopted by IAU,60.12677574,61.80279732,3.669946671,5.340669632,Greek,Europe,Mare Undarum,LAC-62,http://planetarynames.wr.usgs.gov/Feature/328
Crater,Tucker,Tucker,1/1/1979,Richard Hawley; American astronomer (1859-1952).,6.78147,88.2091362,-5.6197616,"""Crater, craters""",AA,Adopted by IAU,88.09677696,88.32149696,-5.731580734,-5.5079422,American,North America,Ansgarius,LAC-81,http://planetarynames.wr.usgs.gov/Feature/6123
Crater,Appleton,Appleton,1/1/1970,Sir Edward Victor; British physicist; Nobel laureate (1892-1965).,64.591,158.1689047,37.04647347,"""Crater, craters""",AA,Adopted by IAU,156.834013,159.5038395,35.98142433,38.11152458,England,Europe,Chandler,LAC-32,http://planetarynames.wr.usgs.gov/Feature/330
Crater,Artsimovich,Artsimovich,1/1/1973,Lev Andreevich; Soviet physicist (1909-1973).,7.95956,323.3719156,27.6115642,"""Crater, craters""",AA,Adopted by IAU,323.2238216,323.5200138,27.48032188,27.7428112,Soviet,Europe,Aristarchus,LAC-39,http://planetarynames.wr.usgs.gov/Feature/405
Crater,Aryabhata,Aryabhata,1/1/1979,"""Aryabhata I; Indian astronomer, mathematician (476-c.550).""",21.8898,35.17326113,6.202799749,"""Crater, craters""",AA,Adopted by IAU,34.81020164,35.53632545,5.841859818,6.563741684,India,Asia,Taruntius,LAC-61,http://planetarynames.wr.usgs.gov/Feature/411
Crater,Arzachel,Arzachel,1/1/1935,Al-Zarqālī; Spanish-Arabic astronomer (died 1100).,96.988,358.069636,-18.2643216,"""Crater, craters""",AA,Adopted by IAU,356.3855762,359.7537556,-19.86374092,-16.66490173,Spain,Europe,Purbach,LAC-95,http://planetarynames.wr.usgs.gov/Feature/412
Crater,Asclepi,Asclepi,1/1/1935,Giuseppe Maria; Italian astronomer (1706-1776).,40.5625,25.52312408,-55.18991863,"""Crater, craters""",AA,Adopted by IAU,24.35042,26.69585228,-55.85875511,-54.52108002,Italy,Europe,Hommel,LAC-127,http://planetarynames.wr.usgs.gov/Feature/414
Crater,Ashbrook,Ashbrook,1/1/1994,Joseph; American astronomer (1918-1980).,157.68,249.4249973,-81.10427815,"""Crater, craters""",AA,Adopted by IAU,230.2504368,264.6355228,-83.7745533,-78.57440376,American,North America,Amundsen,LAC-144,http://planetarynames.wr.usgs.gov/Feature/422
Crater,Auwers,Auwers,1/1/1935,Georg Friedrich Julius Arthur; German astronomer (1838-1915).,19.6421,17.11840586,14.99675718,"""Crater, craters""",AA,Adopted by IAU,16.78306389,17.45375252,14.67288017,15.32063866,Germany,Europe,Julius Caesar,LAC-60,http://planetarynames.wr.usgs.gov/Feature/495
Crater,Aston,Aston,1/1/1964,"""Francis William; British chemist, physicist; Nobel laureate (1877-1945).""",44.4792,272.3151787,32.76584189,"""Crater, craters""",AA,Adopted by IAU,271.4429836,273.1873798,32.03242683,33.49925804,England,Europe,Lorentz,LAC-36,http://planetarynames.wr.usgs.gov/Feature/440
Crater,Yoshi,Yoshi,1/1/1976,Japanese male name.,0.504015,10.99226968,24.56153637,"""Crater, craters""",AA,Adopted by IAU,10.98313332,11.00140572,24.55322838,24.56984901,Japan,Asia,Mare Serenitatis,LAC-42,http://planetarynames.wr.usgs.gov/Feature/6673
Crater,Atlas,Atlas,1/1/1935,Mythological Greek Titan.,88.1165,44.38160299,46.74027376,"""Crater, craters""",AA,Adopted by IAU,42.32473183,46.44596291,45.34563637,48.1347332,Greek,Europe,Geminus,LAC-27,http://planetarynames.wr.usgs.gov/Feature/458
Crater,Galilaei,Galilaei,1/1/1935,"""Galileo; Italian astronomer, physicist (1564-1642).""",15.9856,297.1675442,10.48042778,"""Crater, craters""",AA,Adopted by IAU,296.8994923,297.4355984,10.21684456,10.74401283,Italy,Europe,Hevelius,LAC-56,http://planetarynames.wr.usgs.gov/Feature/2074
Crater,Atwood,Atwood,1/1/1976,"""George; British mathematician, physicist (1746-1807).""",28.6444,57.77501794,-5.877023063,"""Crater, craters""",AA,Adopted by IAU,57.30019569,58.24983788,-6.349342346,-5.40470314,England,Europe,Langrenus,LAC-80,http://planetarynames.wr.usgs.gov/Feature/466
Crater,Autolycus,Autolycus,1/1/1935,Autolycus of Pitane; Greek astronomer (fl. c. 310 B.C.).,38.8787,1.485833517,30.67567882,"""Crater, craters""",AA,Adopted by IAU,0.740354538,2.231344223,30.03460503,31.31675148,Greek,Europe,Montes Apenninus,LAC-41,http://planetarynames.wr.usgs.gov/Feature/493
Crater,Zasyadko,Zasyadko,1/1/1976,"""Alexander Dmitrievich; Russian rocketry scientist, inventor (1779-1837).""",10.2665,94.18828806,3.955185724,"""Crater, craters""",AA,Adopted by IAU,94.01859856,94.35798073,3.785902023,4.124471664,Russia,Europe,Babcock,LAC-64,http://planetarynames.wr.usgs.gov/Feature/6706
Crater,Auzout,Auzout,1/1/1961,"""Adrien; French astronomer, physicist (1622-1691).""",32.921,64.00917622,10.20784114,"""Crater, craters""",AA,Adopted by IAU,63.45770454,64.56065178,9.665002823,10.75068092,France,Europe,Mare Undarum,LAC-62,http://planetarynames.wr.usgs.gov/Feature/497
Crater,Avery,Avery,1/1/1976,Oswald Theodore; Canadian doctor (1877-1955).,10.7297,81.36667812,-1.317155928,"""Crater, craters""",AA,Adopted by IAU,81.18971062,81.54364586,-1.494077682,-1.140233994,Canada,North America,Ansgarius,LAC-81,http://planetarynames.wr.usgs.gov/Feature/507
Crater,Avicenna,Avicenna,1/1/1970,Abu Ali Al-Hussein Ibn Abdallah; Persian doctor (980-1037).,72.9882,262.7231847,39.62543378,"""Crater, craters""",AA,Adopted by IAU,261.1596241,264.2867489,38.42193413,40.82893181,Persian,Asia,Lorentz,LAC-36,http://planetarynames.wr.usgs.gov/Feature/509
Crater,Borel,Borel,1/1/1976,Félix Édouard Émile; French mathematician (1871-1956).,4.66243,26.42408134,22.37354317,"""Crater, craters""",AA,Adopted by IAU,26.34094429,26.50721931,22.2966671,22.45042229,France,Europe,Mare Serenitatis,LAC-42,http://planetarynames.wr.usgs.gov/Feature/824
Crater,Avogadro,Avogadro,1/1/1970,Amedeo (Conte Di Quarengna); Italian physicist (1776-1856).,129.84,165.3644816,63.213802,"""Crater, craters""",AA,Adopted by IAU,160.5867977,170.1417408,61.07287407,65.35473061,Italy,Europe,"D'Alembert",LAC-18,http://planetarynames.wr.usgs.gov/Feature/510
Crater,Azophi,Azophi,1/1/1935,"""Al-Sufi, Abderrahman; Persian astronomer (903-986).""",47.5411,12.69577855,-22.19302717,"""Crater, craters""",AA,Adopted by IAU,11.84903908,13.54249001,-22.97694969,-21.4091053,Persian,Asia,Rupes Altai,LAC-96,http://planetarynames.wr.usgs.gov/Feature/524
Crater,Baade,Baade,1/1/1964,Wilhelm Heinrich Walter; American astronomer (1893-1960).,57.8506,277.9654312,-44.74958154,"""Crater, craters""",AA,Adopted by IAU,276.7423916,279.1853237,-45.70293045,-43.79634476,American,North America,Vallis Inghirami,LAC-109,http://planetarynames.wr.usgs.gov/Feature/529
Crater,Babakin,Babakin,1/1/1973,Georgii Nikolaevich; Soviet space scientist (1914-1971).,19.1525,123.2634514,-20.81262738,"""Crater, craters""",AA,Adopted by IAU,122.9255962,123.601305,-21.12843323,-20.49682045,Soviet,Europe,Fermi,LAC-101,http://planetarynames.wr.usgs.gov/Feature/531
Crater,Babbage,Babbage,1/1/1935,Charles; British mathematician (1792-1871).,146.558,302.6169382,59.5623299,"""Crater, craters""",AA,Adopted by IAU,297.9923687,307.539587,57.16739845,62.00089455,Great Britain,Europe,Pythagoras,LAC-10,http://planetarynames.wr.usgs.gov/Feature/533
Crater,Babcock,Babcock,1/1/1970,"""Harold Delos; American astronomer, physicist (1882-1968).""",95.2773,94.13566063,4.134335661,"""Crater, craters""",AA,Adopted by IAU,92.5614872,95.70989037,2.65363121,5.795881271,American,North America,Babcock,LAC-64,http://planetarynames.wr.usgs.gov/Feature/535
Crater,Back,Back,1/1/1976,Ernst Emil Alexander; German physicist (1881-1959).,34.6326,80.66804865,1.196405682,"""Crater, craters""",AA,Adopted by IAU,80.09684181,81.23924828,0.62534523,1.767469406,Germany,Europe,Neper,LAC-63,http://planetarynames.wr.usgs.gov/Feature/541
Crater,Backlund,Backlund,1/1/1970,Jöns Oskar; Russian astronomer (1846-1916).,75.4624,103.3466323,-16.21704407,"""Crater, craters""",AA,Adopted by IAU,102.0517063,104.6415958,-17.4614315,-14.97265625,Russia,Europe,Hilbert,LAC-100,http://planetarynames.wr.usgs.gov/Feature/542
Crater,Baco,Baco,1/1/1935,"""Bacon, Roger; British natural philosopher, optician (c. 1214-c. 1294).""",65.3077,19.09644485,-51.04412132,"""Crater, craters""",AA,Adopted by IAU,17.38267326,20.8101368,-52.12101173,-49.96722984,Great Britain,Europe,Hommel,LAC-127,http://planetarynames.wr.usgs.gov/Feature/543
Crater,Baillaud,Baillaud,1/1/1935,(Édouard) Benjamin; French astronomer (1848-1934).,89.4393,37.35174277,74.60781827,"""Crater, craters""",AA,Adopted by IAU,31.78734779,42.91524315,73.13298225,76.08266258,France,Europe,Meton,LAC-4,http://planetarynames.wr.usgs.gov/Feature/560
Crater,Bailly,Bailly,1/1/1935,Jean Sylvain; French astronomer (1736-1793).,300.565,291.1046376,-66.8214676,"""Crater, craters""",AA,Adopted by IAU,278.5620861,303.6327267,-71.7814579,-61.86151314,France,Europe,Bailly,LAC-136,http://planetarynames.wr.usgs.gov/Feature/561
Crater,Baily,Baily,1/1/1935,Francis; British astronomer (1774-1844).,25.6756,30.55822881,49.77979972,"""Crater, craters""",AA,Adopted by IAU,29.90231133,31.21414375,49.35643578,50.20316505,Great Britain,Europe,Aristoteles,LAC-13,http://planetarynames.wr.usgs.gov/Feature/562
Crater,Balandin,Balandin,1/1/1976,Aleksey Aleksandrovich; Soviet chemist (1898-1967).,11.8059,152.5835515,-18.94186494,"""Crater, craters""",AA,Adopted by IAU,152.3774967,152.7896099,-19.13653183,-18.7471981,Soviet,Europe,"O'Day",LAC-103,http://planetarynames.wr.usgs.gov/Feature/569
Crater,Balboa,Balboa,1/1/1964,Vasco Nuñez de; Spanish explorer (1475-1519).,69.1947,276.6920368,19.23668042,"""Crater, craters""",AA,Adopted by IAU,275.4838276,277.9001789,18.0956707,20.37769127,Spain,Europe,Russell,LAC-37,http://planetarynames.wr.usgs.gov/Feature/570
Crater,Baldet,Baldet,1/1/1970,Fernand; French astronomer (1885-1964).,55.7589,208.040245,-53.31991595,"""Crater, craters""",AA,Adopted by IAU,206.4996738,209.5806828,-54.23933601,-52.40049553,France,Europe,Minkowski,LAC-133,http://planetarynames.wr.usgs.gov/Feature/574
Crater,Boole,Boole,1/1/1964,George; British mathematician (1815-1864).,61.3367,272.7146306,63.78846661,"""Crater, craters""",AA,Adopted by IAU,270.4639759,275.0439053,62.78355217,64.80633354,Great Britain,Europe,Omar Khayyam,LAC-21,http://planetarynames.wr.usgs.gov/Feature/818
Crater,Borda,Borda,1/1/1935,Jean Charles de; French astronomer (1733-1799).,45.4021,46.52257758,-25.19518638,"""Crater, craters""",AA,Adopted by IAU,45.7017498,47.34380913,-25.90219498,-24.48816872,France,Europe,Fracastorius,LAC-97,http://planetarynames.wr.usgs.gov/Feature/820
Crater,Gardner,Gardner,1/1/1976,Irvine Clifton; American physicist (1889-1972).,17.6165,33.81326876,17.74742268,"""Crater, craters""",AA,Adopted by IAU,33.50829506,34.11824608,17.45694542,18.03790092,American,North America,Macrobius,LAC-43,http://planetarynames.wr.usgs.gov/Feature/2104
Crater,Borman,Borman,1/1/1970,"""Frank; American astronaut, engineer (1928-Live).""",50.7229,211.7483894,-39.06267419,"""Crater, craters""",AA,Adopted by IAU,210.7241497,212.7747936,-39.86640167,-38.25886917,American,North America,Apollo,LAC-121,http://planetarynames.wr.usgs.gov/Feature/827
Crater,Glauber,Glauber,1/1/1976,Johann Rudolph; German chemist (c. 1603-1670).,15.2441,142.6659761,11.31724537,"""Crater, craters""",AA,Adopted by IAU,142.4096317,142.9223194,11.06588554,11.56860542,Germany,Europe,Mendeleev,LAC-66,http://planetarynames.wr.usgs.gov/Feature/2184
Crater,Golitsyn,Golitsyn,1/1/1970,Boris Borisovich; Russian physicist (1862-1916).,35.4655,254.803804,-25.19870317,"""Crater, craters""",AA,Adopted by IAU,254.1575184,255.4500904,-25.78349113,-24.61391449,Russia,Europe,Mare Orientale,LAC-108,http://planetarynames.wr.usgs.gov/Feature/2214
Crater,Born,Born,1/1/1979,Max; German physicist (1882-1970).,15.0674,66.82735307,-6.052608276,"""Crater, craters""",AA,Adopted by IAU,66.57752419,67.07718086,-6.301054001,-5.804161072,Germany,Europe,Langrenus,LAC-80,http://planetarynames.wr.usgs.gov/Feature/828
Crater,Boscovich,Boscovich,1/1/1935,Rudjer J.; Italian physicist (1711-1787).,41.5288,11.01110431,9.710929133,"""Crater, craters""",AA,Adopted by IAU,10.31705666,11.70641136,9.026666641,10.39622307,Italy,Europe,Julius Caesar,LAC-60,http://planetarynames.wr.usgs.gov/Feature/831
Crater,Bayer,Bayer,1/1/1935,Johann; German astronomer (1572-1625).,48.5144,324.8552814,-51.62070246,"""Crater, craters""",AA,Adopted by IAU,323.5670261,326.1435375,-52.42067909,-50.82072449,Germany,Europe,Schiller,LAC-125,http://planetarynames.wr.usgs.gov/Feature/646
Crater,Bose,Bose,1/1/1970,"""Jagadis Chandra; Indian botanist, physicist (1858-1937).""",92.553,190.6393933,-53.95304877,"""Crater, craters""",AA,Adopted by IAU,188.045393,193.2334003,-55.47914886,-52.42694664,India,Asia,Minkowski,LAC-133,http://planetarynames.wr.usgs.gov/Feature/832
Crater,Bawa,Bawa,1/1/1976,African male name.,1.57104,102.5585856,-25.27696954,"""Crater, craters""",AA,Adopted by IAU,102.5450497,102.5721264,-25.30203438,-25.25190353,.,.,Hilbert,LAC-100,http://planetarynames.wr.usgs.gov/Feature/644
Crater,Beals,Beals,1/1/1982,Carlyle Smith; Canadian astronomer (1899-1979).,52.6085,86.57853042,37.1089898,"""Crater, craters""",AA,Adopted by IAU,85.49135017,87.6656971,36.24151039,37.97646904,Canada,North America,Fabry,LAC-29,http://planetarynames.wr.usgs.gov/Feature/651
Crater,Beaumont,Beaumont,1/1/1935,Jean-Baptiste-Armand-Louis-Léonce Élie de; French geologist (1798-1874).,50.6859,28.82285401,-18.0806978,"""Crater, craters""",AA,Adopted by IAU,27.94186974,29.70040703,-18.91802979,-17.24647141,France,Europe,Rupes Altai,LAC-96,http://planetarynames.wr.usgs.gov/Feature/653
Crater,Behaim,Behaim,1/1/1935,"""Martin; German navigator, cartographer (1459-1507).""",56.2112,79.40506764,-16.60562702,"""Crater, craters""",AA,Adopted by IAU,78.43802452,80.37218666,-17.53249168,-15.67876053,Germany,Europe,Humboldt,LAC-99,http://planetarynames.wr.usgs.gov/Feature/662
Crater,Beer,Beer,1/1/1935,Wilhelm; German astronomer (1797-1850).,9.05923,350.8983274,27.07460373,"""Crater, craters""",AA,Adopted by IAU,350.7305737,351.0660839,26.92522621,27.22398186,Germany,Europe,Montes Apenninus,LAC-41,http://planetarynames.wr.usgs.gov/Feature/658
Crater,Becquerel,Becquerel,1/1/1970,Antoine-Henri; French physicist; Nobel laureate (1852-1908).,62.8566,129.501339,40.79454882,"""Crater, craters""",AA,Adopted by IAU,128.1328487,130.869833,39.75811195,41.83098793,France,Europe,Millikan,LAC-30,http://planetarynames.wr.usgs.gov/Feature/654
Crater,Fairouz,Fairouz,1/1/1976,Arab female name.,2.86513,102.946674,-26.06863948,"""Crater, craters""",AA,Adopted by IAU,102.8940754,102.9992542,-26.11588478,-26.02139854,Arabian,Asia,Hilbert,LAC-100,http://planetarynames.wr.usgs.gov/Feature/1901
Crater,Beijerinck,Beijerinck,1/1/1970,Martinus Willem; Dutch botanist (1851-1931).,76.7658,151.8374983,-13.40156026,"""Crater, craters""",AA,Adopted by IAU,150.5364819,153.1385174,-14.66734695,-12.13577271,The Netherlands (Dutch),Europe,Keeler,LAC-85,http://planetarynames.wr.usgs.gov/Feature/664
Crater,Das,Das,1/1/1970,Amil Kumar; Indian astronomer (1902-1961).,35.9466,222.950086,-26.49039605,"""Crater, craters""",AA,Adopted by IAU,222.2878437,223.6123333,-27.08311653,-25.89767456,India,Asia,Lodygin,LAC-106,http://planetarynames.wr.usgs.gov/Feature/1421
Crater,Beketov,Beketov,1/1/1976,Nikolai Nikolaevich; Russian chemist (1827-1911).,8.29708,29.17692627,16.23091081,"""Crater, craters""",AA,Adopted by IAU,29.03444099,29.31941414,16.09410286,16.36772346,Russia,Europe,Mare Serenitatis,LAC-42,http://planetarynames.wr.usgs.gov/Feature/666
Crater,Bell,Bell,1/1/1970,Alexander Graham; Scottish-American inventor (1847-1922).,86.3335,263.4681783,21.97815202,"""Crater, craters""",AA,Adopted by IAU,261.9334927,265.0027981,20.55457878,23.40172768,Scotland,Europe,Robertson,LAC-54,http://planetarynames.wr.usgs.gov/Feature/672
Crater,Bellinsgauzen (Bellingshausen),Bellinsgauzen  Bellingshausen,1/1/1970,Faddei Faddeevich; Russian explorer (1778-1852).,63.2287,195.1506735,-60.71627857,"""Crater, craters""",AA,Adopted by IAU,193.0232677,197.2781925,-61.75884247,-59.67371178,Russia,Europe,Minkowski,LAC-133,http://planetarynames.wr.usgs.gov/Feature/674
Crater,Bellot,Bellot,1/1/1935,Joseph Rene; French explorer (1826-1853).,17.4962,48.19449976,-12.47598237,"""Crater, craters""",AA,Adopted by IAU,47.89900398,48.48999977,-12.76447678,-12.18748665,France,Europe,Colombo,LAC-79,http://planetarynames.wr.usgs.gov/Feature/677
Crater,"Belopol'skiy",Belopol skiy,1/1/1970,Aristarch Apollonovich; Russian astronomer (1854-1934).,61.9035,231.7659728,-17.25076243,"""Crater, craters""",AA,Adopted by IAU,230.6971264,232.8348866,-18.27152824,-16.22999573,Russia,Europe,Houzeau,LAC-107,http://planetarynames.wr.usgs.gov/Feature/679
Crater,"Bel'kovich",Bel kovich,1/1/1964,Igor V.; Soviet astronomer (1904-1949).,215.08,90.14702301,61.52776784,"""Crater, craters""",AA,Adopted by IAU,82.65706062,97.66646004,58.18239021,65.27976799,Soviet,Europe,Belkovich,LAC-15,http://planetarynames.wr.usgs.gov/Feature/684
Crater,Belyaev,Belyaev,1/1/1970,Pavel Ivanovich; Soviet cosmonaut (1925-1970).,55.9043,143.1111443,23.0964166,"""Crater, craters""",AA,Adopted by IAU,142.1090145,144.1132755,22.17461586,24.0182209,Soviet,Europe,Mare Moscoviense,LAC-48,http://planetarynames.wr.usgs.gov/Feature/682
Crater,Benedict,Benedict,1/1/1976,"""Francis Gano; American chemist, physiologist (1870-1957).""",13.8319,141.5364304,4.34919754,"""Crater, craters""",AA,Adopted by IAU,141.3076954,141.7651691,4.121126175,4.577272415,American,North America,Mendeleev,LAC-66,http://planetarynames.wr.usgs.gov/Feature/689
Crater,Bergman,Bergman,1/1/1976,"""Torbern Olof; Swedish chemist, mineralogist, astronomer (1735-1784).""",22.5067,137.4895893,6.973117032,"""Crater, craters""",AA,Adopted by IAU,137.1153774,137.863802,6.602006912,7.344228745,Sweden,Europe,Mendeleev,LAC-66,http://planetarynames.wr.usgs.gov/Feature/700
Crater,Bergstrand,Bergstrand,1/1/1970,Carl Östen Emanuel; Swedish astronomer (1873-1948).,42.9824,176.4405394,-18.72464315,"""Crater, craters""",AA,Adopted by IAU,175.6926479,177.1884212,-19.43338585,-18.01589966,Sweden,Europe,Van de Graaff,LAC-104,http://planetarynames.wr.usgs.gov/Feature/701
Crater,Berkner,Berkner,1/1/1970,Lloyd Viel; American geophysicist (1905-1967).,87.6163,254.7642858,25.12592127,"""Crater, craters""",AA,Adopted by IAU,253.1677608,256.360651,23.68118477,26.57066154,American,North America,Robertson,LAC-54,http://planetarynames.wr.usgs.gov/Feature/702
Crater,Berlage,Berlage,1/1/1970,"""Hendrik Petrus; Dutch geophysicist, meteorologist (1896-1968).""",93.7469,196.3917133,-63.04141218,"""Crater, craters""",AA,Adopted by IAU,193.1909847,199.7081776,-64.58107185,-61.51379967,The Netherlands (Dutch),Europe,Minkowski,LAC-133,http://planetarynames.wr.usgs.gov/Feature/703
Crater,Bernoulli,Bernoulli,1/1/1985,Jacques; Swiss mathematician (1654-1705); Jean; Swiss mathematician (1667-1748). (Spelling changed from Bernouilli.),47.2999,60.61240117,34.92951205,"""Crater, craters""",AA,Adopted by IAU,59.66113853,61.56366539,34.14958763,35.70944023,Switzerland,Europe,Gauss,LAC-28,http://planetarynames.wr.usgs.gov/Feature/709
Crater,Boethius,Boethius,1/1/1976,Anicius Manlius Severinus; Roman scholar(c. A.D. 470-524).,11.1656,72.3339964,5.568953908,"""Crater, craters""",AA,Adopted by IAU,72.15861702,72.50936699,5.398286819,5.739622116,Greek,Europe,Neper,LAC-63,http://planetarynames.wr.usgs.gov/Feature/793
Crater,Berosus,Berosus,1/1/1935,Berosus the Chaldean; Babylonian astronomer (unkn-c. 250 B.C.).,75.2366,69.99216105,33.49555933,"""Crater, craters""",AA,Adopted by IAU,68.50575066,71.4785099,32.2549305,34.73618889,Babylon,Asia,Gauss,LAC-28,http://planetarynames.wr.usgs.gov/Feature/710
Crater,Bessel,Bessel,1/1/1935,Friedrich Wilhelm; German astronomer (1784-1846).,15.5632,17.92035384,21.73423095,"""Crater, craters""",AA,Adopted by IAU,17.64411354,18.19659615,21.47760963,21.99085426,Germany,Europe,Mare Serenitatis,LAC-42,http://planetarynames.wr.usgs.gov/Feature/720
Crater,Bettinus,Bettinus,1/1/1935,"""Mario; Italian mathematician, astronomer (1582-1657).""",71.784,314.8397692,-63.39688549,"""Crater, craters""",AA,Adopted by IAU,312.2804623,317.5021725,-64.57701302,-62.24224091,Italy,Europe,Schiller,LAC-125,http://planetarynames.wr.usgs.gov/Feature/724
Crater,Berzelius,Berzelius,1/1/1935,Jöns Jacob; Swedish chemist (1779-1848).,48.5303,50.95477664,36.55182106,"""Crater, craters""",AA,Adopted by IAU,49.95842934,51.95112801,35.75160789,37.35203743,Sweden,Europe,Geminus,LAC-27,http://planetarynames.wr.usgs.gov/Feature/716
Crater,Bessarion,Bessarion,1/1/1935,John; Greek scholar (1403-1472).,9.84025,322.6924735,14.85104976,"""Crater, craters""",AA,Adopted by IAU,322.5246258,322.8603268,14.68879509,15.01330757,Greek,Europe,Kepler,LAC-57,http://planetarynames.wr.usgs.gov/Feature/719
Crater,Bečvář,Becvar,1/1/1970,Antonin; Czechoslovakian astronomer (1901-1965).,66.6197,125.0733051,-2.573963143,"""Crater, craters""",AA,Adopted by IAU,123.9735241,126.1730061,-3.672492981,-1.475431442,Czechoslovakia,Europe,Langemak,LAC-83,http://planetarynames.wr.usgs.gov/Feature/727
Crater,Bianchini,Bianchini,1/1/1935,Francesco; Italian astronomer (1662-1729).,37.5887,325.6260554,48.78140902,"""Crater, craters""",AA,Adopted by IAU,324.6855984,326.566515,48.16161156,49.40120888,Italy,Europe,J. Herschel,LAC-11,http://planetarynames.wr.usgs.gov/Feature/734
Crater,Bhabha,Bhabha,1/1/1970,Homi Jehangir; Indian physicist (1909-1966).,70.2548,194.6882242,-55.49710794,"""Crater, craters""",AA,Adopted by IAU,192.6428585,196.7335949,-56.65553474,-54.33868027,India,Asia,Minkowski,LAC-133,http://planetarynames.wr.usgs.gov/Feature/728
Crater,Bingham,Bingham,1/1/1976,Hiram; American explorer (1875-1956).,34.9873,115.0543283,8.016326172,"""Crater, craters""",AA,Adopted by IAU,114.4717312,115.6369267,7.439424515,8.593229294,American,North America,Ostwald,LAC-65,http://planetarynames.wr.usgs.gov/Feature/749
Crater,Biela,Biela,1/1/1935,Wilhelm von; Austrian astronomer (1782-1856).,77.0286,51.62854611,-54.99147369,"""Crater, craters""",AA,Adopted by IAU,49.41673851,53.84200478,-56.26448631,-53.71871567,Austria,Europe,Biela,LAC-128,http://planetarynames.wr.usgs.gov/Feature/739
