name,clean_name,approvaldt,origin,diameter,center_lon,center_lat,type,code,approval,min_lon,max_lon,min_lat,max_lat,ethnicity,continent,quad_name,quad_code,link
Wessex Cleft,Wessex Cleft,1973-01-01,"Astronaut-named feature, Apollo 17 site.",3.492600000000000,30.891545915993198,20.343011528197600,Landing site name,LF,Adopted by IAU,30.891545915993198,30.891545915993198,20.343011528197600,20.343011528197600,Great Britain,Europe,Macrobius,LAC-43,http://planetarynames.wr.usgs.gov/Feature/6524
Middle Crescent,Middle Crescent,1973-01-01,"Astronaut-named feature, Apollo 12 site.",0.363000000000000,-23.435400000000001,-3.003200000000000,Landing site name,LF,Adopted by IAU,336.560079031636008,336.571695870734004,-3.008711835761280,-2.998063066582620,American,North America,,,http://planetarynames.wr.usgs.gov/Feature/3885
Surveyor,Surveyor,1973-01-01,"Astronaut-named feature, Apollo 12 site.",0.205000000000000,-23.420000000000002,-3.016000000000000,Landing site name,LF,Adopted by IAU,336.573557582217006,336.579366001772996,-3.012268859973140,-3.005492370495760,American,North America,,,http://planetarynames.wr.usgs.gov/Feature/5773
Cone,Cone,1973-01-01,"Astronaut-named feature, Apollo 14 site.",0.333000000000000,342.566413785962027,-3.624801634747130,Landing site name,LF,Adopted by IAU,342.559153354967975,342.573674403852010,-3.631094090257010,-3.618509181227590,American,North America,Montes Riphaeus,LAC-76,http://planetarynames.wr.usgs.gov/Feature/1287
Triplet,Triplet,1973-01-01,"Astronaut-named feature, Apollo 14 site.",0.321900000000000,-17.466799999999999,-3.650700000000000,Landing site name,LF,Adopted by IAU,342.526194370580015,342.540715419450009,-3.654580749731270,-3.641027770776530,American,North America,,,http://planetarynames.wr.usgs.gov/Feature/6086
Flag,Flag,1973-01-01,"Astronaut-named feature, Apollo 16 site.",0.243000000000000,15.449067432001200,-8.972762087182661,Landing site name,LF,Adopted by IAU,15.444785368483700,15.453302439875801,-8.976767928135081,-8.968756246230210,American,North America,Theophilus,LAC-78,http://planetarynames.wr.usgs.gov/Feature/1970
North Ray,North Ray,1973-01-01,"Astronaut-named feature, Apollo 16 site.",0.947300000000000,15.484278477118600,-8.815144996510851,Landing site name,LF,Adopted by IAU,15.469130734653300,15.501282011763999,-8.830763778553150,-8.799451275844319,American,North America,Theophilus,LAC-78,http://planetarynames.wr.usgs.gov/Feature/4342
Palmetto,Palmetto,1973-01-01,"Astronaut-named feature, Apollo 16 site.",0.760500000000000,15.497161975991400,-8.921781790132430,Landing site name,LF,Adopted by IAU,15.484419743179000,15.511774026902000,-8.934321549633131,-8.909242030631670,American,North America,Theophilus,LAC-78,http://planetarynames.wr.usgs.gov/Feature/4561
Plum,Plum,1973-01-01,"Astronaut-named feature, Apollo 16 site.",0.027900000000000,15.452139790873000,-8.976394616195600,Landing site name,LF,Adopted by IAU,15.451681178175400,15.452623444733700,-8.976855041900251,-8.975934135978321,American,North America,Theophilus,LAC-78,http://planetarynames.wr.usgs.gov/Feature/4763
Hess-Apollo,Hess Apollo,1973-01-01,"Astronaut-named feature, Apollo 17 site.",0.636600000000000,30.745403913253600,20.093138864271300,Landing site name,LF,Adopted by IAU,30.735920489793699,30.754887501521200,20.082786732922600,20.103491018821600,American,North America,Macrobius,LAC-43,http://planetarynames.wr.usgs.gov/Feature/2491
Taurus-Littrow Valley,Taurus Littrow Valley,1973-01-01,"Astronaut-named feature, Apollo 17 site.",21.027699999999999,30.786690681670699,20.070162515994902,Landing site name,LF,Adopted by IAU,30.415942859536500,31.130970891788500,19.749606034229000,20.336143172166100,American,North America,Macrobius,LAC-43,http://planetarynames.wr.usgs.gov/Feature/5881
Scarp,Scarp,1973-01-01,"Astronaut-named feature, Apollo 17 site.",14.756800000000000,30.585984219294900,20.293051020055799,Landing site name,LF,Adopted by IAU,30.585984219294900,30.585984219294900,20.293051020055799,20.293051020055799,American,North America,Macrobius,LAC-43,http://planetarynames.wr.usgs.gov/Feature/5359
Bench,Bench,1973-01-01,"Astronaut-named feature, Apollo 12 site.",0.180000000000000,-23.429800000000000,-3.019800000000000,Landing site name,LF,Adopted by IAU,336.570261521215002,336.574133800914979,-3.021983269544480,-3.019079059768520,American,North America,,,http://planetarynames.wr.usgs.gov/Feature/686
Flank,Flank,1973-01-01,"Astronaut-named feature, Apollo 14 site.",0.038300000000000,-17.439699999999998,-3.636900000000000,Landing site name,LF,Adopted by IAU,342.559206218271015,342.560575275888993,-3.634755878906670,-3.633386821288930,American,North America,,,http://planetarynames.wr.usgs.gov/Feature/1975
End,End,1973-01-01,"Astronaut-named feature, Apollo 16 site.",0.064600000000000,15.512970815675400,-8.910730106637480,Landing site name,LF,Adopted by IAU,15.511817952420699,15.514147206751600,-8.911795074110159,-8.909665139164700,American,North America,Theophilus,LAC-78,http://planetarynames.wr.usgs.gov/Feature/1797
Baby Ray,Baby Ray,1973-01-01,"Astronaut-named feature, Apollo 16 site.",0.172900000000000,15.423845026191300,-9.083595863007931,Landing site name,LF,Adopted by IAU,15.421256965823400,15.426809531703400,-9.086445267562400,-9.080746458453460,American,North America,Theophilus,LAC-78,http://planetarynames.wr.usgs.gov/Feature/536
Cinco,Cinco,1973-01-01,"Astronaut-named feature, Apollo 16 site.",0.072900000000000,15.516395048459600,-9.099995541949950,Landing site name,LF,Adopted by IAU,15.515101018275701,15.517618495179001,-9.101197294235700,-9.098793789664230,American,North America,Theophilus,LAC-78,http://planetarynames.wr.usgs.gov/Feature/1217
Gator,Gator,1973-01-01,"Astronaut-named feature, Apollo 16 site.",0.854400000000000,15.546977358101699,-8.945008066604689,Landing site name,LF,Adopted by IAU,15.531846261125001,15.561232604546900,-8.959094475759169,-8.930921657450140,American,North America,Theophilus,LAC-78,http://planetarynames.wr.usgs.gov/Feature/2115
Halfway,Halfway,1973-01-01,"Astronaut-named feature, Apollo 16 site.",0.106100000000000,15.464730691687400,-8.974694996724089,Landing site name,LF,Adopted by IAU,15.462942577251599,15.466448222658800,-8.976443888261830,-8.972946105186280,American,North America,Theophilus,LAC-78,http://planetarynames.wr.usgs.gov/Feature/2324
Kiva,Kiva,1973-01-01,"Astronaut-named feature, Apollo 16 site.",0.878500000000000,15.450444185683001,-8.840644253575750,Landing site name,LF,Adopted by IAU,15.436317886440900,15.465228337661900,-8.855129222448740,-8.826159284702779,Pueblo,North America,Theophilus,LAC-78,http://planetarynames.wr.usgs.gov/Feature/3059
Ravine,Ravine,1973-01-01,"Astronaut-named feature, Apollo 16 site.",1.064100000000000,15.558172721788900,-8.836822124152871,Landing site name,LF,Adopted by IAU,15.539664783780101,15.576070537169199,-8.854389632053600,-8.819268787607539,American,North America,Theophilus,LAC-78,http://planetarynames.wr.usgs.gov/Feature/4962
Dune,Dune,1973-01-01,"Astronaut-named feature, Apollo 15 site.",0.384800000000000,3.662403546254140,26.036806132696299,Landing site name,LF,Adopted by IAU,3.655104426955440,3.668721173561030,26.030418514277400,26.043150269339002,American,North America,Montes Apenninus,LAC-41,http://planetarynames.wr.usgs.gov/Feature/1662
Smoky Mountains,Smoky Mountains,1973-01-01,"Astronaut-named feature, Apollo 16 site.",13.751300000000001,15.508578431563400,-8.669994350714330,Landing site name,LF,Adopted by IAU,15.449265967082900,15.666843881456099,-8.861829209012569,-8.475975812307130,American,North America,Theophilus,LAC-78,http://planetarynames.wr.usgs.gov/Feature/5606
Elbow,Elbow,1973-01-01,"Astronaut-named feature, Apollo 15 site.",0.339800000000000,3.599149054952240,26.029592630806999,Landing site name,LF,Adopted by IAU,3.592912951340940,3.605385158563530,26.023989070692298,26.035196190921699,American,North America,Montes Apenninus,LAC-41,http://planetarynames.wr.usgs.gov/Feature/1759
South Ray,South Ray,1973-01-01,"Astronaut named feature, Apollo 16 site.",0.695100000000000,15.382706090478100,-9.149308001937330,Landing site name,LF,Adopted by IAU,15.370621134644900,15.393678111791299,-9.160768747058510,-9.137847256816141,Great Britain,Europe,Theophilus,LAC-78,http://planetarynames.wr.usgs.gov/Feature/5659
Spook,Spook,1973-01-01,"Astronaut-named feature, Apollo 16 site.",0.338400000000000,15.477390544481800,-8.981601994434410,Landing site name,LF,Adopted by IAU,15.471461443657500,15.483368244493199,-8.987182506691401,-8.976021482177369,American,North America,Theophilus,LAC-78,http://planetarynames.wr.usgs.gov/Feature/5669
Spot,Spot,1973-01-01,"Astronaut-named feature, Apollo 16 site.",0.035500000000000,15.502279119287101,-8.983384877421591,Landing site name,LF,Adopted by IAU,15.501660422363800,15.502945331306901,-8.983970224829021,-8.982799530014180,American,North America,Theophilus,LAC-78,http://planetarynames.wr.usgs.gov/Feature/5670
Index,Index,1973-01-01,"Astronaut-named feature, Apollo 15 site.",0.324500000000000,3.657226438339250,26.103491277288501,Landing site name,LF,Adopted by IAU,3.651760827548950,3.662918994906300,26.098145098711701,26.108837455865402,American,North America,Montes Apenninus,LAC-41,http://planetarynames.wr.usgs.gov/Feature/2685
Cochise,Cochise,1973-01-01,"Astronaut-named feature, Apollo 17 site.",0.565000000000000,30.842868903890299,20.250106028447899,Landing site name,LF,Adopted by IAU,30.833741278272399,30.851996745688599,20.240953802560401,20.259258499965000,American,North America,Macrobius,LAC-43,http://planetarynames.wr.usgs.gov/Feature/1259
Stone Mountain,Stone Mountain,1973-01-01,"Astronaut-named feature, Apollo 16 site.",10.532100000000000,15.572427006587199,-9.170425715062740,Landing site name,LF,Adopted by IAU,15.480041079307600,15.667780552667500,-9.338237320961531,-9.007373268100761,American,North America,Theophilus,LAC-78,http://planetarynames.wr.usgs.gov/Feature/5715
Wreck,Wreck,1973-01-01,"Astronaut-named feature, Apollo 16 site.",0.943400000000000,15.457315727546501,-9.067328046247690,Landing site name,LF,Adopted by IAU,15.441712252667701,15.473478057095500,-9.082883772573330,-9.051772319922071,American,North America,Theophilus,LAC-78,http://planetarynames.wr.usgs.gov/Feature/6579
Bear Mountain,Bear Mountain,1973-01-01,"Astronaut-named feature, Apollo 17 site.",3.463400000000000,30.772851686486799,19.980298759759400,Landing site name,LF,Adopted by IAU,30.722597470043802,30.823105902929900,19.928799098604401,20.031972527817100,American,North America,Macrobius,LAC-43,http://planetarynames.wr.usgs.gov/Feature/652
Emory,Emory,1973-01-01,"Astronaut-named feature, Apollo 17 site.",0.548700000000000,30.784600293198700,20.120110271424799,Landing site name,LF,Adopted by IAU,30.774965450398600,30.794235135998800,20.111063408645499,20.129157134204000,American,North America,Macrobius,LAC-43,http://planetarynames.wr.usgs.gov/Feature/1794
Lara,Lara,1973-01-01,"Astronaut-named feature, Apollo 17 site.",0.619900000000000,30.554042083838901,20.170158579454998,Landing site name,LF,Adopted by IAU,30.543153366181802,30.564930801496100,20.159937637029401,20.180379521880500,American,North America,Macrobius,LAC-43,http://planetarynames.wr.usgs.gov/Feature/3279
Mackin,Mackin,1973-01-01,"Astronaut-named feature, Apollo 17 site. (Spelling changed from Mackin-Apollo.)",0.475600000000000,30.725971925546801,20.104294994216101,Landing site name,LF,Adopted by IAU,30.717620999200001,30.734322851893602,20.096452907984801,20.112137080447400,American,North America,Macrobius,LAC-43,http://planetarynames.wr.usgs.gov/Feature/3556
North Massif,North Massif,1973-01-01,"Astronaut-named feature, Apollo 17 site.",16.312999999999999,30.718600304185699,20.536427259382702,Landing site name,LF,Adopted by IAU,30.460599756878100,30.989791884574899,20.280718679678500,20.768662653551800,France,Europe,Macrobius,LAC-43,http://planetarynames.wr.usgs.gov/Feature/4341
Shorty,Shorty,1973-01-01,"Astronaut-named feature, Apollo 17 site.",0.113200000000000,30.625359173611400,20.217170274426099,Landing site name,LF,Adopted by IAU,30.623370152400199,30.627348194822499,20.215303796714700,20.219036752137399,American,North America,Macrobius,LAC-43,http://planetarynames.wr.usgs.gov/Feature/5500
Shakespeare,Shakespeare,1973-01-01,"Astronaut-named feature, Apollo 17 site.",0.537300000000000,30.815822176256400,20.243433077577102,Landing site name,LF,Adopted by IAU,30.806379854288700,30.825264498224101,20.234573998387599,20.252292156766600,Great Britain,Europe,Macrobius,LAC-43,http://planetarynames.wr.usgs.gov/Feature/5455
Sherlock,Sherlock,1973-01-01,"Astronaut-named feature, Apollo 17 site.",0.489500000000000,30.812873535499801,20.183800200447699,Landing site name,LF,Adopted by IAU,30.804274668267400,30.821472402732098,20.175729384358299,20.191871016537199,Great Britain,Europe,Macrobius,LAC-43,http://planetarynames.wr.usgs.gov/Feature/5484
Steno-Apollo,Steno Apollo,1973-01-01,"Astronaut-named feature, Apollo 17 site.",0.520200000000000,30.794738919143199,20.146528331038301,Landing site name,LF,Adopted by IAU,30.785602283399999,30.803875554886400,20.137950721570000,20.155105940506701,American,North America,Macrobius,LAC-43,http://planetarynames.wr.usgs.gov/Feature/5698
Tortilla Flat,Tortilla Flat,1973-01-01,"Astronaut-named feature, Apollo 17 site.",2.233000000000000,30.604376741360301,20.187415335776699,Landing site name,LF,Adopted by IAU,30.572070488331999,30.635684567142800,20.162227593282999,20.213575280215800,American,North America,Macrobius,LAC-43,http://planetarynames.wr.usgs.gov/Feature/6067
Trident,Trident,1973-01-01,"Astronaut-named feature, Apollo 17 site.",0.558900000000000,30.769504539987000,20.176346250300700,Landing site name,LF,Adopted by IAU,30.759293028079998,30.778029747175399,20.170229025288801,20.182876310678100,American,North America,Macrobius,LAC-43,http://planetarynames.wr.usgs.gov/Feature/6080
Victory,Victory,1973-01-01,"Astronaut-named feature, Apollo 17 site.",0.505100000000000,30.674836017552298,20.221139042481798,Landing site name,LF,Adopted by IAU,30.667688504179999,30.681584556454101,20.214256750102699,20.228247980816899,American,North America,Macrobius,LAC-43,http://planetarynames.wr.usgs.gov/Feature/6380
Bowen-Apollo,Bowen Apollo,1973-01-01,"Astronaut-named feature, Apollo 17 site.",0.297200000000000,30.865238133561800,20.274518067623500,Landing site name,LF,Adopted by IAU,30.861000515766399,30.869475781795799,20.269675146963600,20.279360986009401,American,North America,Macrobius,LAC-43,http://planetarynames.wr.usgs.gov/Feature/848
Brontë,Bronte,1973-01-01,"Astronaut-named feature, Apollo 17 site.",0.208500000000000,30.674584124514698,20.172015287023498,Landing site name,LF,Adopted by IAU,30.670921426418001,30.678246822611399,20.168577246354602,20.175453327692502,American,North America,Macrobius,LAC-43,http://planetarynames.wr.usgs.gov/Feature/889
Camelot,Camelot,1973-01-01,"Astronaut-named feature, Apollo 17 site.",0.609400000000000,30.732441968700599,20.194700233440699,Landing site name,LF,Adopted by IAU,30.721734907048301,30.743149030352999,20.184651379626299,20.204749087255099,Great Britain,Europe,Macrobius,LAC-43,http://planetarynames.wr.usgs.gov/Feature/984
Horatio,Horatio,1973-01-01,"Astronaut-named feature, Apollo 17 site.",0.379400000000000,30.710332115585000,20.185110536322899,Landing site name,LF,Adopted by IAU,30.703667309094602,30.716996922075499,20.178855064090300,20.191366008555502,American,North America,Macrobius,LAC-43,http://planetarynames.wr.usgs.gov/Feature/2554
Light Mantle,Light Mantle,1973-01-01,"Astronaut-named feature, Apollo 17 site.",4.584200000000000,30.528240616011900,20.163083276187500,Landing site name,LF,Adopted by IAU,30.435679582885101,30.573688321223301,20.092168989077202,20.241123248042101,American,North America,Macrobius,LAC-43,http://planetarynames.wr.usgs.gov/Feature/3398
Powell,Powell,1973-01-01,"Astronaut-named feature, Apollo 17 site.",0.397700000000000,30.763259023283599,20.160550620295801,Landing site name,LF,Adopted by IAU,30.756273077503401,30.770244969063899,20.153992699598501,20.167108540993102,American,North America,Macrobius,LAC-43,http://planetarynames.wr.usgs.gov/Feature/4814
Sculptured Hills,Sculptured Hills,1973-01-01,"Astronaut-named feature, Apollo 17 site.",12.406300000000000,31.063510632783601,20.239094124503801,Landing site name,LF,Adopted by IAU,30.877066800322300,31.242552010817700,20.053564247545001,20.421904811247501,American,North America,Macrobius,LAC-43,http://planetarynames.wr.usgs.gov/Feature/5396
South Massif,South Massif,1973-01-01,"Astronaut named feature, Apollo 17 site.",18.293299999999999,30.354548761909399,19.908717021839401,Landing site name,LF,Adopted by IAU,30.072007502950399,30.641888413846701,19.674755120521201,20.182770045266000,Great Britain,Europe,Macrobius,LAC-43,http://planetarynames.wr.usgs.gov/Feature/5658
Van Serg,Van Serg,1973-01-01,"Astronaut-named feature, Apollo 17 site.",0.096000000000000,30.830564089799701,20.233529081262500,Landing site name,LF,Adopted by IAU,30.828876775175999,30.832251404423399,20.231945889481000,20.235112273043999,American,North America,Macrobius,LAC-43,http://planetarynames.wr.usgs.gov/Feature/6315
Falcon,Falcon,1973-01-01,"Astronaut-named feature, Apollo 17 site.",0.123900000000000,30.307136621652301,20.307526623950402,Landing site name,LF,Adopted by IAU,30.304958926628402,30.309314316676200,20.305484286795100,20.309568961105601,American,North America,Macrobius,LAC-43,http://planetarynames.wr.usgs.gov/Feature/1904
Family Mountain,Family Mountain,1973-01-01,"Astronaut-named feature, Apollo 17 site.",3.393100000000000,30.341672343688000,20.378585993514999,Landing site name,LF,Adopted by IAU,30.283393144322400,30.398678030054899,20.325812317368001,20.430389628574300,American,North America,Macrobius,LAC-43,http://planetarynames.wr.usgs.gov/Feature/1907
Apennine Front,Apennine Front,1973-01-01,"Astronaut-named feature, Apollo 15 site.",6.632100000000000,3.684228943704510,25.921631235062300,Landing site name,LF,Adopted by IAU,3.594255522355270,3.774202365053760,25.842795591311098,26.011186214753700,Italy,Europe,Montes Apenninus,LAC-41,http://planetarynames.wr.usgs.gov/Feature/314
Bridge,Bridge,1973-01-01,"Astronaut-named feature, Apollo 15 site.",0.691100000000000,3.511937942136630,26.036530226601400,Landing site name,LF,Adopted by IAU,3.500250234633500,3.524722554227440,26.025134920193800,26.047953164031700,American,North America,Montes Apenninus,LAC-41,http://planetarynames.wr.usgs.gov/Feature/877
Earthlight,Earthlight,1973-01-01,"Astronaut-named feature, Apollo 15 site.",0.205700000000000,3.649551691657360,26.060844777727699,Landing site name,LF,Adopted by IAU,3.646226888617250,3.652921789031670,26.057452686517902,26.064236868937400,American,North America,Montes Apenninus,LAC-41,http://planetarynames.wr.usgs.gov/Feature/1705
Last,Last,1973-01-01,"Astronaut-named feature, Apollo 15 site.",0.150600000000000,3.635700452027540,26.126414657730699,Landing site name,LF,Adopted by IAU,3.632993379225340,3.638213132090810,26.123931895076101,26.128897420385300,American,North America,Montes Apenninus,LAC-41,http://planetarynames.wr.usgs.gov/Feature/3289
North Complex,North Complex,1973-01-01,"Astronaut-named feature, Apollo 15 site.",3.092500000000000,3.593284951587670,26.254377250956601,Landing site name,LF,Adopted by IAU,3.546212045794640,3.647458022307130,26.211381704030199,26.292140610568101,American,North America,Montes Apenninus,LAC-41,http://planetarynames.wr.usgs.gov/Feature/4340
Plain,Plain,1973-01-01,"Astronaut-named feature, Apollo 15 site.",2.801300000000000,3.640924054826990,26.154010423429899,Landing site name,LF,Adopted by IAU,3.593062676796290,3.686099602124250,26.114061521540599,26.189252489324801,American,North America,Montes Apenninus,LAC-41,http://planetarynames.wr.usgs.gov/Feature/4747
Rhysling,Rhysling,1973-01-01,"Astronaut-named feature, Apollo 15 site.",0.115000000000000,3.623303073310970,26.072805208247800,Landing site name,LF,Adopted by IAU,3.621236733669500,3.625291048350990,26.070908177139799,26.074702239355702,American,North America,Montes Apenninus,LAC-41,http://planetarynames.wr.usgs.gov/Feature/5020
South Cluster,South Cluster,1973-01-01,"Astronaut named feature, Apollo 15 site.",3.161400000000000,3.705128111434170,26.021894862601599,Landing site name,LF,Adopted by IAU,3.654782458157830,3.755473764710510,25.976661661923000,26.063741318716399,Great Britain,Europe,Montes Apenninus,LAC-41,http://planetarynames.wr.usgs.gov/Feature/5657
Spur,Spur,1973-01-01,"Astronaut-named feature, Apollo 15 site.",0.084300000000000,3.666753134602900,25.981901052244801,Landing site name,LF,Adopted by IAU,3.665206496667020,3.668299772538790,25.980510729174199,25.983291375315400,American,North America,Montes Apenninus,LAC-41,http://planetarynames.wr.usgs.gov/Feature/5673
St. George,St  George,1973-01-01,"Astronaut-named feature, Apollo 15 site.",2.417800000000000,3.537974567159870,25.963279607955698,Landing site name,LF,Adopted by IAU,3.495430231539500,3.577967785179240,25.923413352533199,26.003145863378201,American,North America,Montes Apenninus,LAC-41,http://planetarynames.wr.usgs.gov/Feature/5678
Terrace,Terrace,1973-01-01,"Astronaut-named feature, Apollo 15 site.",1.502300000000000,3.562029292905020,26.145187345155001,Landing site name,LF,Adopted by IAU,3.547552681116700,3.577811533209420,26.122579818126098,26.168743964267701,American,North America,Montes Apenninus,LAC-41,http://planetarynames.wr.usgs.gov/Feature/5933
Statio Tranquillitatis,Statio Tranquillitatis,1970-01-01,"""Tranquility Base,"" Apollo 11 landing site.",0.009000000000000,23.473183101232301,0.674134801951674,Landing site name,LF,Adopted by IAU,23.473008341837801,23.473335604926799,0.673985924903069,0.674283679000112,Latin,Europe,Julius Caesar,LAC-60,http://planetarynames.wr.usgs.gov/Feature/5684
West,West,1973-01-01,"Astronaut-named feature, Apollo 11 site.",0.188200000000000,23.490757726618700,0.670532525752856,Landing site name,LF,Adopted by IAU,23.487700487227599,23.494208809434401,0.667428964542025,0.673636086876591,American,North America,Julius Caesar,LAC-60,http://planetarynames.wr.usgs.gov/Feature/6525
Guang Han Gong,Guang Han Gong,2015-10-05,Moon palace where Chang-E and Yutu lived in Chinese mythology.,0.077000000000000,340.487685779957019,44.118350084785803,Landing site name,LF,Adopted by IAU,340.483306954381021,340.492019583709009,44.114474888265804,44.122219447669202,China,Asia,Sinus Iridum,LAC-24,http://planetarynames.wr.usgs.gov/Feature/15415
Mount Marilyn,Mount Marilyn,2017-07-26,"Astronaut named feature, Apollo 11 site.",30.000000000000000,40.000000000000000,1.130000000000000,Landing site name,LF,Adopted by IAU,39.599121093750902,40.593383789063999,0.773849487304624,1.776351928710930,United States,North America,Taruntius,LAC-61,http://planetarynames.wr.usgs.gov/Feature/15617
Little West,Little West,2017-07-26,"Astronaut named crater, Apollo 11 site.",0.040000000000000,23.475600000000000,0.674300000000000,Landing site name,LF,Adopted by IAU,23.483551025392000,23.483551025392000,0.671882629394530,0.671882629394530,United States,North America,Julius Caesar,LAC-60,http://planetarynames.wr.usgs.gov/Feature/15615
Double,Double,2017-07-26,"Astronaut named crater, Apollo 11 site.",0.015000000000000,23.472700000000000,0.673800000000000,Landing site name,LF,Adopted by IAU,23.468307495118999,23.468307495118999,0.672569274902340,0.672569274902340,United States,North America,Julius Caesar,LAC-60,http://planetarynames.wr.usgs.gov/Feature/15616
Statio Tianhe,Statio Tianhe,2019-02-04,"Ancient Chinese name for the Milky Way, a sky river that separates Niulang and Zhinyu in the Chinese folk tale “The Cowherd and the Weaver Girl.”",0.010000000000000,177.599999999999994,-45.450000000000003,Landing site name,LF,Adopted by IAU,177.599999999999994,177.599999999999994,45.450000000000003,45.450000000000003,China,Asia,Mare Ingenii,LAC-119,http://planetarynames.wr.usgs.gov/Feature/15781
Block,Block,1973-01-01,"Astronaut-named feature, Apollo 12 site.",0.011300000000000,-23.418199999999999,-3.013400000000000,Landing site name,LF,Adopted by IAU,336.585917201347002,336.591725620902992,-3.016248020811280,-3.010439601259220,American,North America,,,http://planetarynames.wr.usgs.gov/Feature/779
Head,Head,1973-01-01,"Astronaut-named feature, Apollo 12 site.",0.115000000000000,-23.426800000000000,-3.014000000000000,Landing site name,LF,Adopted by IAU,336.574391706164022,336.577295915936020,-3.013765947661500,-3.010861737885400,American,North America,,,http://planetarynames.wr.usgs.gov/Feature/2396
Halo,Halo,1973-01-01,"Astronaut-named feature, Apollo 12 site.",0.006000000000000,-23.422200000000000,-3.020100000000000,Landing site name,LF,Adopted by IAU,336.576867013073979,336.578803152916009,-3.020632402739600,-3.017728192963500,American,North America,,,http://planetarynames.wr.usgs.gov/Feature/2333
Weird,Weird,1973-01-01,"Astronaut-named feature, Apollo 14 site.",0.048900000000000,-17.460200000000000,-3.644600000000000,Landing site name,LF,Adopted by IAU,342.537233562021015,342.538602619638993,-3.644368916015870,-3.642999858398130,American,North America,,,http://planetarynames.wr.usgs.gov/Feature/6514
Snowman,Snowman,1973-01-01,"Astronaut-named feature, Apollo 12 site.",0.649000000000000,-23.419599999999999,-3.015100000000000,Landing site name,LF,Adopted by IAU,336.573352590964987,336.594402535983022,-3.025101362347900,-3.005019487261370,American,North America,,,http://planetarynames.wr.usgs.gov/Feature/5613
Doublet,Doublet,1973-01-01,"Astronaut-named feature, Apollo 14 site.",0.129000000000000,-17.481900000000000,-3.642200000000000,Landing site name,LF,Adopted by IAU,342.522513549707980,342.529290039192006,-3.639176208605940,-3.632399719128560,American,North America,,,http://planetarynames.wr.usgs.gov/Feature/1629
Crescent,Crescent,1973-01-01,"Astronaut-named feature, Apollo 12 site.",1.980000000000000,336.565475468538978,-2.997550964399640,Landing site name,LF,Adopted by IAU,336.533090104170014,336.597860823569988,-3.029654899636420,-2.965447029074690,American,North America,Montes Riphaeus,LAC-76,http://planetarynames.wr.usgs.gov/Feature/1330
Old Nameless,Old Nameless,1973-01-01,"Astronaut-named feature, Apollo 14 site.",0.831000000000000,-17.424099999999999,-3.719600000000000,Landing site name,LF,Adopted by IAU,342.565704554563979,342.591842442546010,-3.733314305320170,-3.707176417336130,American,North America,,,http://planetarynames.wr.usgs.gov/Feature/4434
Sharp-Apollo,Sharp Apollo,1973-01-01,"Astronaut-named feature, Apollo 12 site.",0.014000000000000,-23.434400000000000,-3.020900000000000,Landing site name,LF,Adopted by IAU,336.568077950593988,336.570014090436018,-3.021178336038620,-3.019242196187980,American,North America,,,http://planetarynames.wr.usgs.gov/Feature/5472
Stubby,Stubby,1973-01-01,"Astronaut-named feature, Apollo 16 site.",0.926400000000000,15.481000000000000,-9.092400000000000,Landing site name,LF,Adopted by IAU,15.472995394459600,15.502881424692699,-9.111036538967820,-9.081323945939969,American,North America,Theophilus,LAC-78,http://planetarynames.wr.usgs.gov/Feature/5730
Trap,Trap,1973-01-01,"Astronaut-named feature, Apollo 16 site.",0.759400000000000,15.430899999999999,-9.048100000000000,Landing site name,LF,Adopted by IAU,15.421957543667199,15.449540255646900,-9.061139430040550,-9.036095602954219,American,North America,Theophilus,LAC-78,http://planetarynames.wr.usgs.gov/Feature/6077
Nansen-Apollo,Nansen Apollo,1973-01-01,"Astronaut-named feature, Apollo 17 site.",0.863500000000000,30.521000000000001,20.117799999999999,Landing site name,LF,Adopted by IAU,30.521050224312098,30.542889890839501,20.093987875717801,20.120705437307301,American,North America,Macrobius,LAC-43,http://planetarynames.wr.usgs.gov/Feature/4144
